stop_id,stop_code,stop_name,stop_desc,stop_lat,stop_lon,zone_id,stop_url,location_type,parent_station
1000,1000,"FREDERICK / KING",,  43.449665, -80.487205,,,0,
1001,1001,"FREDERICK / IRVIN",,  43.452326, -80.484192,,,0,
1002,1002,"FREDERICK / OTTO",,  43.452995, -80.482913,,,0,
1003,1003,"FREDERICK / SAMUEL",,  43.454826, -80.479511,,,0,
1004,1004,"FREDERICK / MERNER",,  43.456210, -80.476903,,,0,
1005,1005,"UNION / DOVER",,  43.463995, -80.509249,,,0,
1006,1006,"FREDERICK STREET MALL",,  43.457923, -80.473576,,,0,
1007,1007,"FREDERICK / ANN",,  43.459283, -80.469794,,,0,
1008,1008,"FREDERICK / BRUCE",,  43.459993, -80.467513,,,0,
1009,1009,"FREDERICK / LOIS",,  43.460916, -80.464637,,,0,
1010,1010,"FREDERICK / RIVER",,  43.461830, -80.461662,,,0,
1012,1012,"RIVER / MANCHESTER",,  43.458463, -80.454177,,,0,
1013,1013,"RIVER / HALLIWELL",,  43.457472, -80.450428,,,0,
1014,1014,"RIVER / HICKSON",,  43.454284, -80.446675,,,0,
1015,1015,"RIVER / PATH TO SECORD",,  43.452839, -80.445724,,,0,
1016,1016,"RIVER / OTTAWA",,  43.451231, -80.444688,,,0,
1017,1017,"RIVER / STANLEY PARK MALL",,  43.448703, -80.443141,,,0,
1018,1018,"RIVER / CONWAY",,  43.447276, -80.442388,,,0,
1019,1019,"RIVER / BRADLEY",,  43.445723, -80.441426,,,0,
1026,1026,"OLDFIELD / BATTERSWOOD",,  43.450825, -80.429724,,,0,
1027,1027,"Oldfield / Casey",,  43.453000, -80.430717,,,0,
1030,1030,"OTTAWA / OLDFIELD",,  43.455386, -80.432524,,,0,
1038,1038,"FAIRWAY / IDLE CREEK",,  43.441428, -80.418085,,,0,
1039,1039,"FAIRWAY / OLD CHICOPEE",,  43.436770, -80.426298,,,0,
1041,1041,"FAIRWAY / MORGAN",,  43.430207, -80.431957,,,0,
1042,1042,"FAIRWAY / KING",,  43.428821, -80.432155,,,0,
1043,1043,"FAIRWAY / KING",,  43.427546, -80.432883,,,0,
1044,1044,"FAIRWAY / WABANAKI",,  43.422714, -80.437215,,,0,
1045,1045,"FAIRWAY / FAIRVIEW PARK",,  43.421823, -80.439089,,,0,
1046,1046,"FAIRVIEW PARK TERMINAL",,  43.422831, -80.440846,,,0,place_FVM
1047,1047,"FAIRWAY / WALMART",,  43.424007, -80.434683,,,0,
1048,1048,"FAIRWAY / KING",,  43.428883, -80.431858,,,0,
1049,1049,"FAIRWAY / MORGAN",,  43.430448, -80.431658,,,0,
1050,1050,"FAIRWAY / THALER",,  43.432222, -80.429911,,,0,
1052,1052,"FAIRWAY / RIVER",,  43.434718, -80.427955,,,0,
1053,1053,"FAIRWAY / FAIRWAY",,  43.441445, -80.417826,,,0,
1057,1057,"Ottawa / Lackner",,  43.456410, -80.432057,,,0,
1059,1059,"OLDFIELD / JADESTONE",,  43.452388, -80.430785,,,0,
1060,1060,"OLDFIELD / DRUMOAK",,  43.450771, -80.429873,,,0,
1061,1061,"OLDFIELD / SPRINGMOUNT",,  43.448874, -80.426888,,,0,
1062,1062,"OLDFIELD / LACKNER",,  43.449797, -80.424073,,,0,
1068,1068,"RIVER / BRADLEY",,  43.445866, -80.441338,,,0,
1069,1069,"RIVER / CONWAY",,  43.447185, -80.442154,,,0,
1070,1070,"RIVER / STANLEY PARK MALL",,  43.449523, -80.443344,,,0,
1071,1071,"RIVER / OTTAWA",,  43.451402, -80.444563,,,0,
1072,1072,"RIVER / PATH TO SECORD",,  43.453353, -80.445830,,,0,
1073,1073,"RIVER / HALLIWELL",,  43.457679, -80.450414,,,0,
1074,1074,"RIVER / MANCHESTER",,  43.458799, -80.454866,,,0,
1076,1076,"FREDERICK / RIVER",,  43.461921, -80.461958,,,0,
1077,1077,"FREDERICK / LOIS",,  43.461176, -80.464350,,,0,
1079,1079,"FREDERICK / BRUCE",,  43.460067, -80.467858,,,0,
1080,1080,"FREDERICK / EDNA",,  43.458514, -80.472755,,,0,
1081,1081,"FREDERICK / ANN",,  43.459366, -80.470090,,,0,
1082,1082,"FREDERICK / FILBERT",,  43.456523, -80.476616,,,0,
1083,1083,"UNION / DEVITT",,  43.463615, -80.509811,,,0,
1084,1084,"FREDERICK / GORDON",,  43.454783, -80.479894,,,0,
1085,1085,"FREDERICK / LANCASTER",,  43.453506, -80.482377,,,0,
1086,1086,"FREDERICK / IRVIN",,  43.452399, -80.484438,,,0,
1088,1088,"FREDERICK / KING",,  43.449909, -80.487401,,,0,
1090,1090,"UNIVERSITY / SEAGRAM",,  43.469279, -80.538619,,,0,
1091,1091,"UNION / WEBER",,  43.465072, -80.506287,,,0,
1092,1092,"UNION / WEBER",,  43.465173, -80.505466,,,0,
1093,1093,"COLUMBIA / PHILLIP",,  43.476816, -80.540812,,,0,
1094,1094,"COLUMBIA / U.W. OPTOMETRY",,  43.475516, -80.544382,,,0,
1095,1095,"Ira Needles / Victoria",,  43.429185, -80.553306,,,0,
1096,1096,"COLUMBIA / VILLAGE 1",,  43.473156, -80.550990,,,0,
1097,1097,"COLUMBIA / RON EYDT VILLAGE",,  43.471570, -80.555391,,,0,
1098,1098,"COLUMBIA / OLD POST",,  43.470128, -80.559605,,,0,
1099,1099,"COLUMBIA / BEECHLAWN",,  43.469592, -80.561084,,,0,
1100,1100,"COLUMBIA / FISCHER-HALLMAN",,  43.466991, -80.568294,,,0,
1101,1101,"IRA NEEDLES / VICTORIA",,  43.429414, -80.553171,,,0,
1102,1102,"COLUMBIA / GATESTONE",,  43.465334, -80.572942,,,0,
1104,1104,"COLUMBIA / CAVENDISH",,  43.464006, -80.576783,,,0,
1105,1105,"COLUMBIA / ERBSVILLE",,  43.462463, -80.580775,,,0,
1106,1106,"ERBSVILLE / WILLOW WOOD",,  43.465168, -80.584193,,,0,
1107,1107,"LAURELWOOD / ERBSVILLE",,  43.471456, -80.592470,,,0,
1108,1108,"LAURELWOOD / BIRCHMOUNT",,  43.472751, -80.589507,,,0,
1109,1109,"LAURELWOOD / BROOKMILL",,  43.472042, -80.585098,,,0,
1110,1110,"LAURELWOOD / BEAVER CRK CR",,  43.471615, -80.581589,,,0,
1111,1111,"LAURELWOOD / BEAVER CRK RD",,  43.472228, -80.579397,,,0,
1112,1112,"LAURELWOOD / LAUREL GATE",,  43.474317, -80.574585,,,0,
1113,1113,"PATH TO LAUREL GATE",,  43.472548, -80.571123,,,0,
1114,1114,"FISCHER-HALLMAN / GATESTONE",,  43.470677, -80.568997,,,0,
1115,1115,"FISCHER-HALLMAN / COLUMBIA",,  43.468554, -80.567133,,,0,
1116,1116,"COLUMBIA / FISCHER-HALLMAN",,  43.467987, -80.564974,,,0,
1117,1117,"COLUMBIA / BEECHLAWN",,  43.469091, -80.561788,,,0,
1118,1118,"COLUMBIA / OLD POST",,  43.469858, -80.559694,,,0,
1119,1119,"COLUMBIA / RON EYDT VILLAGE",,  43.471381, -80.555467,,,0,
1120,1120,"COLUMBIA / VILLAGE 1",,  43.473163, -80.550483,,,0,
1121,1121,"CHESAPEAKE / CHESAPEAKE",,  43.510993, -80.513805,,,0,
1122,1122,"U.W. -  B.C. MATTHEWS HALL",,  43.474187, -80.545443,,,0,
1123,1123,"U.W. -  DAVIS CENTRE",,  43.472730, -80.541226,,,0,
1124,1124,"U.W. -  ENGINEERING",,  43.469382, -80.539409,,,0,
1125,1125,"CONESTOGA MALL TERMINAL",,  43.498025, -80.528566,,,0,place_CML
1126,1126,"CONESTOGA MALL TERMINAL",,  43.498289, -80.529109,,,0,place_CML
1127,1127,"CONESTOGA MALL TERMINAL",,  43.498036, -80.528999,,,0,place_CML
1128,1128,"CONESTOGA MALL TERMINAL",,  43.498071, -80.528838,,,0,place_CML
1129,1129,"CONESTOGA MALL TERMINAL",,  43.498070, -80.528418,,,0,place_CML
1130,1130,"CONESTOGA MALL TERMINAL",,  43.498035, -80.528777,,,0,place_CML
1133,1133,"CHESAPEAKE / SEAWIND",,  43.510669, -80.513894,,,0,
1134,1134,"NORTHFIELD / PARKSIDE",,  43.497320, -80.545678,,,0,
1135,1135,"NORTHFIELD / WEBER",,  43.496172, -80.548989,,,0,
1136,1136,"NORTHFIELD / WEBER",,  43.495584, -80.550713,,,0,
1137,1137,"NORTHFIELD / NORTHGATE",,  43.494480, -80.553763,,,0,
1138,1138,"NORTHFIELD / SKYLARK",,  43.493625, -80.556182,,,0,
1139,1139,"NORTHLAKE / BLACK OAK",,  43.494799, -80.557138,,,0,
1140,1140,"NORTHLAKE / GREEN MEADOW",,  43.494826, -80.559549,,,0,
1141,1141,"NORTHLAKE / PINE ISLAND",,  43.493955, -80.562524,,,0,
1142,1142,"HIGHPOINT / CORNERBROOK",,  43.493243, -80.564755,,,0,
1143,1143,"HIGHPOINT / WINTERGREEN",,  43.491189, -80.564523,,,0,
1144,1144,"HIGHPOINT / ROLLING HILLS",,  43.488430, -80.563318,,,0,
1145,1145,"HIGHPOINT / DOGWOOD",,  43.486818, -80.563318,,,0,
1146,1146,"HIGHPOINT / TOLL GATE",,  43.484941, -80.559992,,,0,
1147,1147,"TOLL GATE / GLEN FORREST",,  43.487188, -80.556674,,,0,
1148,1148,"GLEN FORREST / TEAKWOOD",,  43.486141, -80.553578,,,0,
1149,1149,"CEDARBRAE / GLEN FORREST",,  43.485665, -80.551565,,,0,
1150,1150,"CEDARBRAE / HEASLEY PARK",,  43.487946, -80.550089,,,0,
1151,1151,"CEDARBRAE / GLEN MANOR",,  43.488773, -80.549712,,,0,
1152,1152,"CEDARBRAE / SPRUCEHILL",,  43.489613, -80.548061,,,0,
1153,1153,"PARKSIDE / GLENELM",,  43.490196, -80.545175,,,0,
1154,1154,"PARKSIDE / WEBER",,  43.492589, -80.544625,,,0,
1155,1155,"ALBERT / WEBER",,  43.491552, -80.537559,,,0,
1156,1156,"ALBERT / LONGWOOD",,  43.490533, -80.539508,,,0,
1157,1157,"ALBERT / QUIET",,  43.487633, -80.541571,,,0,
1158,1158,"HAZEL / WILDWOOD",,  43.485723, -80.539087,,,0,
1159,1159,"HAZEL / TAMARACK",,  43.485233, -80.536955,,,0,
1160,1160,"HAZEL / SMALLWOOD",,  43.483646, -80.535139,,,0,
1161,1161,"HAZEL / AUSTIN",,  43.481575, -80.533084,,,0,
1162,1162,"WATERLOO C.I.",,  43.478946, -80.531039,,,0,place_WCI
1163,1163,"HAZEL / HICKORY",,  43.477898, -80.530219,,,0,
1164,1164,"HICKORY / KING",,  43.478033, -80.525668,,,0,
1165,1165,"KING / UNIVERSITY",,  43.476319, -80.525075,,,0,
1166,1166,"UNIVERSITY / KING",,  43.476025, -80.525782,,,0,place_KUN
1167,1167,"LAURIER",,  43.475513, -80.528259,,,0,
1168,1168,"HAZEL / HICKORY",,  43.477880, -80.530034,,,0,
1171,1171,"WATERLOO C.I.",,  43.479569, -80.531344,,,0,place_WCI
1172,1172,"HAZEL / AUSTIN",,  43.481538, -80.532924,,,0,
1173,1173,"HAZEL / SMALLWOOD",,  43.483771, -80.535095,,,0,
1174,1174,"HAZEL / BLYTHWOOD",,  43.485671, -80.537294,,,0,
1175,1175,"HAZEL / ALBERT",,  43.485734, -80.539433,,,0,
1176,1176,"ALBERT / GREENBRIER",,  43.488146, -80.541394,,,0,
1177,1177,"ALBERT / LONGWOOD",,  43.490541, -80.539174,,,0,
1178,1178,"WEBER / ALBERT",,  43.492038, -80.537641,,,0,
1179,1179,"PARKSIDE / WEBER",,  43.492652, -80.544798,,,0,
1180,1180,"Ira Needles / Highland",,  43.423466, -80.552844,,,0,
1181,1181,"CEDARBRAE / MOUNT ANNE",,  43.490028, -80.546104,,,0,
1182,1182,"CEDARBRAE / SPRUCEHILL",,  43.489819, -80.547738,,,0,
1183,1183,"CEDARBRAE / HEASLEY PK TRAIL",,  43.488010, -80.550249,,,0,
1184,1184,"CEDARBRAE / GLEN FORREST",,  43.485674, -80.551714,,,0,
1185,1185,"GLEN FORREST / BROOKHAVEN",,  43.487040, -80.555426,,,0,
1186,1186,"TOLL GATE / GLEN FORREST",,  43.487297, -80.556710,,,0,
1187,1187,"TOLL GATE / DOGWOOD",,  43.486153, -80.559081,,,0,
1188,1188,"TOLL GATE / HIGHPOINT",,  43.485102, -80.559669,,,0,
1189,1189,"HIGHPOINT / DOGWOOD",,  43.486709, -80.563096,,,0,
1190,1190,"HIGHPOINT / ROLLING HILLS",,  43.489140, -80.562992,,,0,
1191,1191,"HIGHPOINT / NORTHFIELD",,  43.491089, -80.564264,,,0,
1193,1193,"NORTHLAKE / HIGHPOINT",,  43.493619, -80.563961,,,0,
1194,1194,"NORTHLAKE / GREEN MEADOW",,  43.494709, -80.559538,,,0,
1195,1195,"NORTHLAKE / SKYLARK",,  43.494509, -80.556657,,,0,
1196,1196,"NORTHFIELD / SKYLARK",,  43.493525, -80.555935,,,0,
1197,1197,"NORTHFIELD / NORTHGATE",,  43.494353, -80.553554,,,0,
1198,1198,"NORTHFIELD / WEBER",,  43.495643, -80.549710,,,0,
1199,1199,"NORTHFIELD / WEBER",,  43.496232, -80.548259,,,0,
1200,1200,"NORTHFIELD / PARKSIDE",,  43.496944, -80.546213,,,0,
1203,1203,"Ira Needles / Highland",,  43.423491, -80.552556,,,0,
1204,1204,"DAVENPORT / NORTHFIELD",,  43.502516, -80.528074,,,0,
1205,1205,"DAVENPORT / OLD ABBEY",,  43.499940, -80.525620,,,0,
1206,1206,"DAVENPORT / NORTHFIELD",,  43.503138, -80.528267,,,0,
1207,1207,"DAVENPORT / NORTHFIELD",,  43.503915, -80.528718,,,0,
1208,1208,"FROBISHER / DAVENPORT",,  43.505357, -80.529214,,,0,
1209,1209,"151 FROBISHER",,  43.506055, -80.527997,,,0,
1210,1210,"FROBISHER / MCMURRAY",,  43.507085, -80.526702,,,0,
1211,1211,"HIGHLAND / WESTFOREST",,  43.424982, -80.544442,,,0,
1212,1212,"KRAUS / NORTHFIELD",,  43.501473, -80.530618,,,0,
1213,1213,"COLUMBIA / LADYSLIPPER",,  43.449676, -80.586500,,,0,
1214,1214,"COLUMBIA / LADYSLIPPER",,  43.449369, -80.586771,,,0,
1215,1215,"MCMURRAY / NORTHLAND",,  43.508940, -80.528472,,,0,
1216,1216,"MCMURRAY / BATHURST",,  43.511001, -80.530760,,,0,
1217,1217,"BATHURST / RANKIN",,  43.510239, -80.533952,,,0,
1218,1218,"RUPERT / BATHURST",,  43.508971, -80.536597,,,0,
1219,1219,"NORTHLAND / RUPERT",,  43.506595, -80.534454,,,0,
1220,1220,"NORTHLAND / FROBISHER",,  43.505870, -80.535618,,,0,
1221,1221,"WYMAN / COLBY",,  43.504421, -80.538054,,,0,
1226,1226,"COLBY / NORTHFIELD",,  43.500300, -80.537901,,,0,
1227,1227,"KUMPF / NORTHFIELD",,  43.499817, -80.541775,,,0,
1228,1228,"585 KUMPF DR",,  43.501261, -80.542704,,,0,
1229,1229,"611 KUMPF DR",,  43.506749, -80.546077,,,0,
1230,1230,"RANDALL / CONRAD",,  43.502064, -80.549799,,,0,
1231,1231,"RANDALL / WEBER",,  43.501218, -80.552267,,,0,
1232,1232,"NORTHLAKE / SWALLOW",,  43.501949, -80.555044,,,0,
1233,1233,"NORTHLAKE / MAYVIEW",,  43.498857, -80.554102,,,0,
1234,1234,"GOLDEN EAGLE / WEBER",,  43.498479, -80.551792,,,0,
1235,1235,"QUEEN / ROOSHILL",,  43.424266, -80.323211,,,0,
1236,1236,"QUEEN / HARVEY",,  43.429874, -80.313783,,,0,
1237,1237,"QUEEN / HUNGERFORD",,  43.433437, -80.307355,,,0,
1238,1238,"QUEEN / PANABAKER",,  43.435815, -80.304634,,,0,
1239,1239,"RIVER / MELRAN",,  43.439147, -80.301655,,,0,
1240,1240,"MELRAN / MCCORMICK",,  43.438698, -80.298917,,,0,
1241,1241,"MELRAN / ALDERSON",,  43.440100, -80.295515,,,0,
1242,1242,"MCMEEKEN / WERSTINE",,  43.438110, -80.294030,,,0,
1243,1243,"MCMEEKEN / MCCORMICK",,  43.436937, -80.293685,,,0,
1244,1244,"KERWOOD / GEES",,  43.430936, -80.293125,,,0,
1247,1247,"COOPER / ELLIS",,  43.427850, -80.297757,,,0,
1248,1248,"COOPER / ONTARIO",,  43.430491, -80.301248,,,0,
1249,1249,"COOPER / LEWIS",,  43.431798, -80.305817,,,0,
1250,1250,"QUEEN / ADAM",,  43.431182, -80.311248,,,0,
1251,1251,"QUEEN / HARVEY",,  43.429298, -80.315297,,,0,
1252,1252,"QUEEN / WINSTON",,  43.427545, -80.318850,,,0,
1253,1253,"QUEEN / SHEPHERD",,  43.422567, -80.325157,,,0,
1254,1254,"QUEEN / SHEPHERD",,  43.423246, -80.324235,,,0,
1258,1258,"Franklin / Thomas",,  43.424341, -80.310053,,,0,
1259,1259,"Franklin / Edward",,  43.427023, -80.309849,,,0,
1265,1265,"WINSTON / COOPER",,  43.422128, -80.292845,,,0,
1266,1266,"WINSTON / DARREN",,  43.421322, -80.297795,,,0,
1267,1267,"WINSTON / KARL",,  43.421761, -80.301929,,,0,
1268,1268,"WINSTON / GUNN",,  43.421371, -80.304453,,,0,
1269,1269,"WINSTON / WESTBURY",,  43.421738, -80.307093,,,0,
1274,1274,"QUEEN / ROOSHILL",,  43.424285, -80.323334,,,0,
1276,1276,"GROH / HOLIDAY INN",,  43.419159, -80.325985,,,0,
1278,1278,"GROH / HOLIDAY INN",,  43.419115, -80.326121,,,0,
1279,1279,"Can-Amera / Conestoga",,  43.390834, -80.312318,,,0,
1280,1280,"Can-Amera / Conestoga",,  43.390707, -80.312086,,,0,
1281,1281,"FRANKLIN / ADAM",,  43.429888, -80.308811,,,0,
1282,1282,"EAGLE / CONCESSION",,  43.404665, -80.348203,,,0,
1283,1283,"EAGLE / SHETTLESTON",,  43.404090, -80.351704,,,0,
1284,1284,"EAGLE / LAUREL",,  43.403577, -80.354822,,,0,
1287,1287,"MAPLE GROVE / SALTSMAN",,  43.421727, -80.383558,,,0,
1288,1288,"MAPLE GROVE / CHERRY BLOSSOM",,  43.417147, -80.386798,,,0,
1289,1289,"LAUREL / EAGLE",,  43.403319, -80.355467,,,0,
1290,1290,"EAGLE / ARLINGTON",,  43.403974, -80.351903,,,0,
1291,1291,"FISHER MILLS / SCOTT",,  43.435349, -80.320880,,,0,
1292,1292,"IRA NEEDLES / UNIVERSITY",,  43.437868, -80.560674,,,0,
1293,1293,"BOARDWALK MEDICAL CENTRE",,  43.440029, -80.565105,,,0,
1294,1294,"AT CAMBRIDGE MARKETS",,  43.417366, -80.324300,,,0,
1295,1295,"200 HOLIDAY INN DR",,  43.416395, -80.321408,,,0,
1296,1296,"FISHER MILLS / SCOTT",,  43.435358, -80.319992,,,0,
1297,1297,"Jacob Hespeler S.S.",,  43.417190, -80.315940,,,0,
1298,1298,"HOLIDAY INN / FRANKLIN",,  43.417983, -80.311422,,,0,
1299,1299,"TANNERY / QUEEN",,  43.431584, -80.309254,,,0,
1300,1300,"GUELPH / SHEFFIELD",,  43.434443, -80.311532,,,0,
1301,1301,"FISHER MILLS / FEARNWOOD",,  43.436422, -80.314836,,,0,
1302,1302,"SCOTT / FISHER MILLS",,  43.435742, -80.320425,,,0,
1303,1303,"SCOTT / NICKOLAS",,  43.437517, -80.321073,,,0,
1304,1304,"SCOTT / MILTON",,  43.439052, -80.320241,,,0,
1305,1305,"POPLAR / SCOTT",,  43.441412, -80.317422,,,0,
1306,1306,"POPLAR / DAWN",,  43.445412, -80.316203,,,0,
1307,1307,"GUELPH / FISHER MILLS",,  43.436950, -80.312171,,,0,
1308,1308,"GUELPH / SHEFFIELD",,  43.434913, -80.311724,,,0,
1309,1309,"ADAM / TANNERY",,  43.430480, -80.309761,,,0,
1310,1310,"FRANKLIN / SHAMROCK",,  43.429102, -80.309653,,,0,
1311,1311,"1670 BISHOP",,  43.397924, -80.306006,,,0,
1312,1312,"FRANKLIN / THOMAS",,  43.424333, -80.310213,,,0,
1314,1314,"HIGHLAND / WESTFOREST",,  43.425305, -80.543980,,,0,
1315,1315,"JACOB HESPELER S.S.",,  43.417204, -80.316631,,,0,
1316,1316,"THE HOLIDAY INN",,  43.416504, -80.321543,,,0,
1317,1317,"HERITAGE BIBLE COLLEGE",,  43.417510, -80.324274,,,0,
1318,1318,"CONESTOGA / LENA",,  43.392677, -80.315289,,,0,
1319,1319,"CONESTOGA TRANSIT GARAGE",,  43.394837, -80.316673,,,0,
1320,1320,"BISHOP / COLLIER-MACMILLAN",,  43.395933, -80.320846,,,0,
1321,1321,"BISHOP / HESPELER",,  43.394990, -80.325759,,,0,
1322,1322,"INDUSTRIAL / BISHOP",,  43.394785, -80.329244,,,0,
1323,1323,"1367 INDUSTRIAL",,  43.396499, -80.329768,,,0,
1324,1324,"INDUSTRIAL / LANGS",,  43.402381, -80.331580,,,0,
1325,1325,"EAGLE / PINEBUSH",,  43.407798, -80.328626,,,0,
1328,1328,"1500 BISHOP",,  43.397357, -80.309169,,,0,
1329,1329,"PINEBUSH / BALMORAL",,  43.412681, -80.301267,,,0,
1330,1330,"355 PINEBUSH",,  43.413105, -80.298446,,,0,
1331,1331,"PINEBUSH / FLEMING",,  43.413704, -80.294870,,,0,
1332,1332,"FLEMING / THOMPSON",,  43.410003, -80.293467,,,0,
1333,1333,"FLEMING / SHELDON",,  43.408785, -80.293074,,,0,
1335,1335,"SHELDON / BALMORAL",,  43.407295, -80.301132,,,0,
1336,1336,"SHELDON / FRANKLIN",,  43.406191, -80.307653,,,0,
1337,1337,"SHELDON / WOLSELEY",,  43.403203, -80.312404,,,0,
1338,1338,"SHELDON / CORYDON",,  43.403142, -80.315678,,,0,
1339,1339,"CONESTOGA / SHELDON",,  43.402038, -80.319259,,,0,
1340,1340,"500 CONESTOGA",,  43.400305, -80.318550,,,0,
1341,1341,"CONESTOGA / BISHOP",,  43.396662, -80.317689,,,0,
1342,1342,"Dunbar / Conestoga",,  43.391285, -80.314539,,,0,
1343,1343,"Can-Amera / Franklin",,  43.393565, -80.304327,,,0,
1344,1344,"SAGINAW / GREEN VISTA",,  43.390815, -80.299284,,,0,
1345,1345,"Saginaw / Cowan",,  43.389580, -80.296199,,,0,
1346,1346,"Saginaw / Stonecairn",,  43.390136, -80.292859,,,0,
1347,1347,"Saginaw / Chamberlin",,  43.389995, -80.288946,,,0,
1348,1348,"Saginaw / Burnett",,  43.389541, -80.285482,,,0,
1349,1349,"Saginaw / Light",,  43.390162, -80.282536,,,0,
1350,1350,"Saginaw / Granite Hill",,  43.393490, -80.277743,,,0,
1351,1351,"1625 BISHOP",,  43.398099, -80.306073,,,0,
1352,1352,"Essex Point / Burnett",,  43.396155, -80.289171,,,0,
1353,1353,"1575 BISHOP",,  43.397505, -80.309353,,,0,
1354,1354,"Green Vista / Whittaker",,  43.394513, -80.294536,,,0,
1355,1355,"BURNETT / BENN",,  43.384786, -80.290570,,,0,
1356,1356,"ST. BENEDICT C.S.S. 2",,  43.391615, -80.300509,,,0,place_STBS
1357,1357,"Can-Amera / Franklin",,  43.393904, -80.303854,,,0,
1358,1358,"Dunbar / Conestoga",,  43.391380, -80.314832,,,0,
1359,1359,"Munch / Sekura",,  43.383199, -80.317507,,,0,
1360,1360,"Munch / Elgin",,  43.384177, -80.312434,,,0,
1361,1361,"Elgin / Regal",,  43.382658, -80.309822,,,0,
1362,1362,"Elgin / Glamis",,  43.381103, -80.307272,,,0,
1363,1363,"Glamis / Carter",,  43.381782, -80.304968,,,0,
1364,1364,"Glamis / The Greenway",,  43.384015, -80.303461,,,0,
1365,1365,"GLAMIS / FRANKLIN",,  43.385218, -80.301459,,,0,
1366,1366,"Robson / Burnett",,  43.386304, -80.297965,,,0,
1367,1367,"Cowan / Robson",,  43.387126, -80.295388,,,0,
1368,1368,"COWAN / WALLACE",,  43.384176, -80.294484,,,0,
1369,1369,"Burnett / Buchanan",,  43.383325, -80.292284,,,0,
1370,1370,"BURNETT / DRUMLIN",,  43.386970, -80.287447,,,0,
1371,1371,"Saginaw / Burnett",,  43.389545, -80.285972,,,0,
1372,1372,"SAGINAW / FAIRGREEN",,  43.389892, -80.288305,,,0,
1373,1373,"Saginaw / Stonecairn",,  43.390437, -80.292016,,,0,
1374,1374,"Saginaw / Cowan",,  43.389725, -80.296321,,,0,
1378,1378,"ELGIN / FRANKLIN",,  43.391386, -80.302957,,,0,
1379,1379,"Elgin / Bushnell",,  43.391115, -80.308615,,,0,
1380,1380,"Elgin / Glenbrook",,  43.388964, -80.311763,,,0,
1381,1381,"Elgin / Sekura",,  43.386715, -80.313603,,,0,
1382,1382,"Munch / Kovac",,  43.384013, -80.313646,,,0,
1383,1383,"Munch / Sekura",,  43.383192, -80.317803,,,0,
1384,1384,"HESPELER / MUNCH",,  43.383323, -80.320222,,,0,
1385,1385,"CAMBRIDGE CENTRE TERMINAL",,  43.391226, -80.319615,,,0,place_CBC
1386,1386,"CAMBRIDGE CENTRE TERMINAL",,  43.391252, -80.319429,,,0,place_CBC
1387,1387,"CAMBRIDGE CENTRE TERMINAL",,  43.391295, -80.319157,,,0,place_CBC
1388,1388,"CAMBRIDGE CENTRE TERMINAL",,  43.391404, -80.319378,,,0,place_CBC
1389,1389,"CAMBRIDGE CENTRE TERMINAL",,  43.391352, -80.319663,,,0,place_CBC
1390,1390,"CAMBRIDGE CENTRE TERMINAL",,  43.391309, -80.319947,,,0,place_CBC
1391,1391,"CAMBRIDGE CENTRE TERMINAL",,  43.391274, -80.320207,,,0,place_CBC
1392,1392,"DUNBAR / HESPELER",,  43.390424, -80.324106,,,0,
1393,1393,"DUNBAR / BRIARWOOD",,  43.390007, -80.326691,,,0,
1394,1394,"DUNBAR / DALEVIEW",,  43.389354, -80.328921,,,0,
1395,1395,"DUNBAR / BISCAYNE",,  43.388879, -80.330852,,,0,
1396,1396,"DUNBAR / EASTDOWNS",,  43.388523, -80.333066,,,0,
1397,1397,"DUNBAR / PINE",,  43.388104, -80.335404,,,0,
1398,1398,"DUNBAR / ST. GEORGE",,  43.387703, -80.337705,,,0,
1399,1399,"DUNBAR / GRAND VALLEY",,  43.388149, -80.341626,,,0,
1400,1400,"CONCESSION / GRAND VALLEY",,  43.389513, -80.342402,,,0,
1401,1401,"Bishop / Duke",,  43.390751, -80.346339,,,0,
1402,1402,"BISHOP / HAMILTON",,  43.388440, -80.348439,,,0,
1403,1403,"HAMILTON / MONTROSE",,  43.389571, -80.351019,,,0,
1404,1404,"HAMILTON / UNION",,  43.390610, -80.353132,,,0,
1405,1405,"BECK / HOMUTH",,  43.389020, -80.354281,,,0,
1406,1406,"HIGHLAND / WESTHEIGHTS",,  43.429384, -80.531695,,,0,
1407,1407,"HOMUTH / FREDERICK",,  43.388475, -80.357735,,,0,
1408,1408,"ROSE / LOWTHER",,  43.389300, -80.360381,,,0,
1409,1409,"ROSE / WESTMINSTER",,  43.390747, -80.363206,,,0,
1410,1410,"ROSE / ARGYLE",,  43.391403, -80.364471,,,0,place_PRHS
1411,1411,"ARGYLE / VINE",,  43.393052, -80.363107,,,0,
1412,1412,"ARGYLE / HAMILTON",,  43.394628, -80.361572,,,0,
1413,1413,"HAMILTON / WESTMINSTER",,  43.394134, -80.360244,,,0,
1414,1414,"WESTMINSTER / KING",,  43.395647, -80.358511,,,0,
1415,1415,"WESTMINSTER / DUKE",,  43.396587, -80.357625,,,0,
1416,1416,"WESTMINSTER / LAWRENCE",,  43.398593, -80.355653,,,0,
1417,1417,"EAGLE / SPEEDSVILLE",,  43.404616, -80.347623,,,0,
1418,1418,"CONCESSION / GARDEN",,  43.402604, -80.346817,,,0,
1419,1419,"CONCESSION / DOLPH",,  43.400042, -80.346017,,,0,
1420,1420,"LANGS / CONCESSION",,  43.398140, -80.344025,,,0,
1421,1421,"Langs / Walter",,  43.398627, -80.341093,,,0,
1422,1422,"LANGS / VALENTINE",,  43.399106, -80.338223,,,0,
1423,1423,"LANGS / TRICO",,  43.399619, -80.335204,,,0,
1424,1424,"LANGS / INDUSTRIAL",,  43.400308, -80.331319,,,0,
1425,1425,"LANGS / HESPELER",,  43.401151, -80.327605,,,0,
1426,1426,"HESPELER / LANGS",,  43.400754, -80.325905,,,0,
1427,1427,"480 HESPELER",,  43.397452, -80.324880,,,0,
1428,1428,"HESPELER / BISHOP",,  43.395927, -80.324353,,,0,
1429,1429,"LANGS / INDUSTRIAL",,  43.400418, -80.331589,,,0,
1430,1430,"LANGS / TRICO",,  43.399634, -80.336093,,,0,
1431,1431,"LANGS / WALTER",,  43.398847, -80.340263,,,0,
1432,1432,"LANGS / FAIRVIEW MENNONITE",,  43.398429, -80.342639,,,0,
1433,1433,"CONCESSION / WINTERHALT",,  43.398697, -80.345464,,,0,
1435,1435,"336 EAGLE",,  43.401250, -80.360651,,,0,
1436,1436,"EAGLE / WILLIAM",,  43.400069, -80.362034,,,0,
1437,1437,"EAGLE / KING",,  43.398296, -80.363707,,,0,
1438,1438,"EAGLE / HAMILTON",,  43.396433, -80.365492,,,0,
1439,1439,"EAGLE / SHERRING",,  43.394499, -80.367488,,,0,
1440,1440,"PRESTON H.S.",,  43.391177, -80.364300,,,0,place_PRHS
1441,1441,"LOWTHER / VINE",,  43.390940, -80.359030,,,0,
1442,1442,"LOWTHER / HAMILTON",,  43.392534, -80.357519,,,0,
1443,1443,"KING / MONTROSE",,  43.391074, -80.349238,,,0,
1444,1444,"Bishop / Duke",,  43.390526, -80.346379,,,0,
1445,1445,"BISHOP / PINEVIEW",,  43.391622, -80.344256,,,0,
1446,1446,"FAIRVIEW / BISHOP",,  43.391752, -80.341921,,,0,
1447,1447,"FAIRVIEW / GRAND VALLEY",,  43.389018, -80.340913,,,0,
1448,1448,"DUNBAR / GRAND VALLEY",,  43.387987, -80.341603,,,0,
1449,1449,"DUNBAR / ST. GEORGE",,  43.387603, -80.337583,,,0,
1450,1450,"DUNBAR / PINE",,  43.387988, -80.335529,,,0,
1451,1451,"DUNBAR / EASTDOWNS",,  43.388336, -80.333550,,,0,
1452,1452,"DUNBAR / BISCAYNE",,  43.388736, -80.331051,,,0,
1453,1453,"DUNBAR / BRIARWOOD",,  43.389917, -80.326680,,,0,
1454,1454,"DUNBAR / HESPELER",,  43.390343, -80.324070,,,0,
1455,1455,"KING / WESTMINSTER",,  43.396070, -80.358569,,,0,
1456,1456,"SMARTCENTRES CAMBRIDGE",,  43.411698, -80.323622,,,0,
1457,1457,"SMARTCENTRES SOUTH",,  43.410245, -80.322910,,,0,
1458,1458,"HESPELER / EAGLE",,  43.406690, -80.327914,,,0,
1459,1459,"588 HESPELER",,  43.404164, -80.327065,,,0,
1460,1460,"HESPELER / WAUCHOPE",,  43.381161, -80.319962,,,0,
1461,1461,"HESPELER / WILMOT",,  43.379808, -80.319594,,,0,
1462,1462,"HESPELER / JAFFRAY",,  43.377238, -80.319018,,,0,
1463,1463,"WATER / AUGUSTA",,  43.372382, -80.318468,,,0,
1464,1464,"GALT C.I.",,  43.369809, -80.317472,,,0,
1465,1465,"AINSLIE / SIMCOE",,  43.364766, -80.314307,,,0,
1466,1466,"AINSLIE / PARK HILL",,  43.362703, -80.314158,,,0,
1467,1467,"AINSLIE / DICKSON",,  43.359981, -80.313683,,,0,
1468,1468,"AINSLIE / DICKSON",,  43.360322, -80.313494,,,0,
1469,1469,"AINSLIE / COLBORNE",,  43.361889, -80.313525,,,0,
1470,1470,"AINSLIE / PARK HILL",,  43.363684, -80.314085,,,0,
1471,1471,"AINSLIE / MARKET",,  43.365560, -80.314570,,,0,
1472,1472,"WATER / SAMUELSON",,  43.368698, -80.316892,,,0,
1473,1473,"GALT C.I.",,  43.370638, -80.317549,,,0,
1475,1475,"HESPELER / AVENUE",,  43.376920, -80.318540,,,0,
1476,1476,"167 HESPELER",,  43.381375, -80.319688,,,0,
1477,1477,"HESPELER / BISHOP",,  43.395789, -80.323910,,,0,
1478,1478,"499 HESPELER",,  43.398568, -80.324806,,,0,
1479,1479,"HESPELER / LANGS",,  43.400472, -80.325427,,,0,
1480,1480,"561 HESPELER",,  43.403548, -80.326418,,,0,
1482,1482,"SMARTCENTRES SOUTH",,  43.410379, -80.322748,,,0,
1483,1483,"SMARTCENTRES CAMBRIDGE",,  43.411678, -80.324672,,,0,
1484,1484,"FRANKLIN / HOLIDAY INN",,  43.418386, -80.310761,,,0,
1485,1485,"FRANKLIN / PINEBUSH",,  43.411113, -80.308486,,,0,
1486,1486,"FRANKLIN / STAFFORD",,  43.407937, -80.307522,,,0,
1487,1487,"FRANKLIN / SHELDON",,  43.405859, -80.306988,,,0,
1488,1488,"FRANKLIN / TURNBULL",,  43.403472, -80.306103,,,0,
1489,1489,"FRANKLIN / RAGLIN",,  43.400873, -80.305281,,,0,
1490,1490,"FRANKLIN / BISHOP",,  43.399158, -80.304770,,,0,
1491,1491,"FRANKLIN / ELGIN",,  43.391193, -80.302193,,,0,
1492,1492,"FRANKLIN / GLAMIS",,  43.385586, -80.301196,,,0,
1493,1493,"PATH TO THE GREENWAY",,  43.383275, -80.300259,,,0,
1494,1494,"FRANKLIN / AVENUE",,  43.380062, -80.299000,,,0,
1495,1495,"FRANKLIN / ATHLONE",,  43.375251, -80.297093,,,0,
1501,1501,"DOBBIE / SAVAGE",,  43.367800, -80.283355,,,0,
1502,1502,"100 SAVAGE",,  43.366548, -80.286283,,,0,
1503,1503,"FRANKLIN / HILLTOP",,  43.364746, -80.291895,,,0,
1504,1504,"FRANKLIN / MCLAREN",,  43.361247, -80.290248,,,0,
1506,1506,"MAIN / ALEXANDER",,  43.357140, -80.293797,,,0,
1507,1507,"MAIN / ELGIN",,  43.356592, -80.296802,,,0,
1508,1508,"CONCESSION / SCRIMGER",,  43.355844, -80.301216,,,0,
1509,1509,"CONCESSION / PECK",,  43.355376, -80.304097,,,0,
1510,1510,"CONCESSION / CAMERON",,  43.354863, -80.307126,,,0,
1511,1511,"Ainslie Terminal",,  43.357170, -80.313529,,,0,place_AST
1512,1512,"Ainslie Terminal",,  43.357332, -80.313503,,,0,place_AST
1514,1514,"Ainslie Terminal",,  43.357656, -80.313462,,,0,place_AST
1516,1516,"Ainslie Terminal",,  43.357617, -80.312981,,,0,place_AST
1517,1517,"Ainslie Terminal",,  43.357580, -80.312759,,,0,place_AST
1518,1518,"Ainslie Terminal",,  43.357400, -80.312823,,,0,place_AST
1519,1519,"Ainslie Terminal",,  43.357275, -80.312960,,,0,place_AST
1520,1520,"Ainslie Terminal",,  43.357123, -80.313085,,,0,place_AST
1521,1521,"Ainslie Terminal",,  43.357015, -80.313198,,,0,place_AST
1522,1522,"Ainslie Terminal",,  43.356963, -80.313494,,,0,place_AST
1523,1523,"AINSLIE / WALNUT",,  43.354938, -80.314075,,,0,
1524,1524,"CONCESSION / CAMERON",,  43.354686, -80.307646,,,0,
1525,1525,"CONCESSION / PECK",,  43.355293, -80.303913,,,0,
1526,1526,"CONCESSION / SCRIMGER",,  43.355720, -80.301551,,,0,
1527,1527,"MAIN / ALEXANDER",,  43.357049, -80.293564,,,0,
1528,1528,"SOUTH CAMBRIDGE SHOPPING CTR",,  43.357718, -80.289731,,,0,
1529,1529,"FRANKLIN / MCLAREN",,  43.361711, -80.290317,,,0,
1530,1530,"FRANKLIN / SAVAGE",,  43.364962, -80.291769,,,0,
1531,1531,"55 SAVAGE",,  43.365935, -80.288944,,,0,
1532,1532,"111 SAVAGE",,  43.366581, -80.285752,,,0,
1533,1533,"DOBBIE / SAVAGE",,  43.367988, -80.283291,,,0,
1534,1534,"DOBBIE / ORION",,  43.369695, -80.283975,,,0,
1539,1539,"FRANKLIN / ATHLONE",,  43.375728, -80.297149,,,0,
1540,1540,"FRANKLIN / AVENUE",,  43.381107, -80.299186,,,0,
1541,1541,"FRANKLIN / ROBSON",,  43.385241, -80.300805,,,0,
1542,1542,"FRANKLIN / SAGINAW",,  43.392355, -80.302303,,,0,
1543,1543,"FRANKLIN / LINDSAY",,  43.396334, -80.303653,,,0,
1544,1544,"FRANKLIN / BISHOP",,  43.398923, -80.304463,,,0,
1545,1545,"FRANKLIN / RAGLIN",,  43.401215, -80.305227,,,0,
1546,1546,"FRANKLIN / TURNBULL",,  43.403633, -80.306002,,,0,
1547,1547,"FRANKLIN / SHELDON",,  43.405672, -80.306634,,,0,
1548,1548,"FRANKLIN / STAFFORD",,  43.407873, -80.307350,,,0,
1549,1549,"FRANKLIN / PINEBUSH",,  43.410408, -80.308087,,,0,
1550,1550,"FRANKLIN / HOLIDAY INN",,  43.417300, -80.310256,,,0,
1551,1551,"FAIRVIEW PARK TERMINAL",,  43.423211, -80.441337,,,0,place_FVM
1552,1552,"FAIRVIEW PARK TERMINAL",,  43.423103, -80.441189,,,0,place_FVM
1553,1553,"FAIRVIEW PARK TERMINAL",,  43.422904, -80.440981,,,0,place_FVM
1554,1554,"FAIRVIEW PARK TERMINAL",,  43.423012, -80.441141,,,0,place_FVM
1555,1555,"FAIRVIEW PARK TERMINAL",,  43.423121, -80.441288,,,0,place_FVM
1556,1556,"FAIRVIEW PARK TERMINAL",,  43.423239, -80.441435,,,0,place_FVM
1557,1557,"FAIRVIEW PARK TERMINAL",,  43.423047, -80.440869,,,0,place_FVM
1558,1558,"FAIRVIEW PARK TERMINAL",,  43.423328, -80.441237,,,0,place_FVM
1559,1559,"KINGSWAY / WILSON",,  43.423057, -80.442932,,,0,
1560,1560,"385 FAIRWAY",,  43.421344, -80.440674,,,0,
1561,1561,"FAIRWAY / KING",,  43.428236, -80.432234,,,0,
1562,1562,"3065 KING",,  43.427657, -80.429769,,,0,
1563,1563,"3227 KING",,  43.426157, -80.425113,,,0,
1564,1564,"KING / HOFSTETTER",,  43.425714, -80.423128,,,0,
1565,1565,"KING / RIVER",,  43.425112, -80.419774,,,0,
1566,1566,"KING / RIVERBANK",,  43.419574, -80.409178,,,0,
1567,1567,"KING / DEER RIDGE",,  43.410620, -80.399816,,,0,
1568,1568,"HELDMANN / KING",,  43.408459, -80.396355,,,0,
1569,1569,"SPORTSWORLD CROSSING",,  43.409414, -80.393072,,,0,place_SPW
1570,1570,"SPORTSWORLD CROSSING",,  43.410034, -80.393275,,,0,place_SPW
1571,1571,"SPORTSWORLD CROSSING",,  43.410281, -80.393101,,,0,place_SPW
1572,1572,"SPORTSWORLD CROSSING",,  43.410186, -80.392578,,,0,place_SPW
1573,1573,"GATEWAY PARK / SPORTSWORLD",,  43.407820, -80.391372,,,0,
1574,1574,"TU LANE / GATEWAY PARK",,  43.406260, -80.389177,,,0,
1575,1575,"SHANTZ HILL / PRESTON PKWY",,  43.399640, -80.375548,,,0,
1576,1576,"PRESTON / LINDEN",,  43.399359, -80.376860,,,0,
1577,1577,"PRESTON / KIWANIS VILLAGE",,  43.398527, -80.377980,,,0,
1578,1578,"PRESTON / PARKVIEW",,  43.396446, -80.377668,,,0,
1579,1579,"PRESTON / HILLVIEW",,  43.394807, -80.377746,,,0,
1580,1580,"PRESTON / WOODS",,  43.391880, -80.377492,,,0,
1581,1581,"PRESTON / FOUNTAIN",,  43.390832, -80.375317,,,0,
1582,1582,"FOUNTAIN / BAUMAN",,  43.395369, -80.373456,,,0,
1583,1583,"FOUNTAIN / SHANTZ HILL",,  43.397707, -80.371209,,,0,
1584,1584,"KING / FOUNTAIN",,  43.399817, -80.368446,,,0,
1585,1585,"KING / CHOPIN",,  43.399029, -80.364453,,,0,
1586,1586,"KING / WATERLOO",,  43.397255, -80.361199,,,0,
1587,1587,"KING / WESTMINSTER",,  43.395617, -80.358067,,,0,
1588,1588,"KING / LOWTHER",,  43.394179, -80.355292,,,0,
1589,1589,"KING / DOLPH",,  43.392959, -80.352959,,,0,
1590,1590,"Sportsworld Crossing",,  43.409699, -80.392846,,,0,place_SPW
1591,1591,"KING / BISHOP",,  43.389789, -80.346621,,,0,
1592,1592,"KING / BROWER",,  43.388732, -80.344447,,,0,
1593,1593,"KING / BLUE HERON",,  43.387685, -80.342347,,,0,
1594,1594,"CORONATION / ORIOLE",,  43.385668, -80.339283,,,0,
1595,1595,"CORONATION / BLUE HERON",,  43.383615, -80.336132,,,0,
1596,1596,"GALT COUNTRY CLUB",,  43.380659, -80.331140,,,0,
1597,1597,"CAMBRIDGE MEMORIAL HOSPITAL",,  43.378432, -80.327424,,,0,
1598,1598,"CORONATION / ISLANDVIEW",,  43.376903, -80.324812,,,0,
1599,1599,"CORONATION / WRIGHT",,  43.374757, -80.321157,,,0,
1600,1600,"DUNDAS / WATER",,  43.372950, -80.318089,,,0,
1601,1601,"DUNDAS / HOPETON",,  43.370454, -80.313935,,,0,
1602,1602,"DUNDAS / CAMBRIDGE",,  43.367389, -80.308860,,,0,
1603,1603,"DUNDAS / BEVERLY",,  43.365897, -80.306272,,,0,
1604,1604,"BEVERLY / KERR",,  43.362959, -80.308861,,,0,
1605,1605,"WELLINGTON / MAIN",,  43.359238, -80.311420,,,0,
1606,1606,"BEVERLY / KERR",,  43.361982, -80.309624,,,0,
1607,1607,"BEVERLY / MILL CREEK TRAIL",,  43.364597, -80.307200,,,0,
1608,1608,"DUNDAS / GRANTHAM",,  43.366259, -80.306515,,,0,
1609,1609,"DUNDAS / CAMBRIDGE",,  43.367542, -80.308734,,,0,
1610,1610,"DUNDAS / ROXBORO",,  43.370590, -80.313946,,,0,
1611,1611,"DUNDAS / JARVIS",,  43.372235, -80.316618,,,0,
1612,1612,"CORONATION / HESPELER",,  43.373802, -80.319085,,,0,
1613,1613,"CORONATION / GOLDIE",,  43.375527, -80.321988,,,0,
1614,1614,"CORONATION / OLIVER",,  43.378146, -80.326403,,,0,
1615,1615,"CAMBRIDGE MEMORIAL HOSPITAL",,  43.379683, -80.328904,,,0,
1616,1616,"725 CORONATION",,  43.381020, -80.331173,,,0,
1617,1617,"CORONATION / HIGHLAND",,  43.382484, -80.333712,,,0,
1618,1618,"CORONATION / BLUE HERON",,  43.383857, -80.335981,,,0,
1619,1619,"CORONATION / ORIOLE",,  43.385792, -80.338899,,,0,
1620,1620,"King / Concession",,  43.387911, -80.342518,,,0,
1621,1621,"KING / BROWER",,  43.388776, -80.344225,,,0,
1622,1622,"KING / BISHOP",,  43.389969, -80.346607,,,0,
1623,1623,"KING / MONTROSE",,  43.391736, -80.350132,,,0,
1624,1624,"KING / DOLPH",,  43.393175, -80.352919,,,0,
1625,1625,"KING / LOWTHER",,  43.394623, -80.355781,,,0,
1626,1626,"KING / WATERLOO",,  43.397454, -80.361246,,,0,
1627,1627,"KING / CHOPIN",,  43.399064, -80.364292,,,0,
1628,1628,"KING / FOUNTAIN",,  43.399950, -80.368012,,,0,
1629,1629,"FOUNTAIN / BAUMAN",,  43.396141, -80.372966,,,0,
1630,1630,"PRESTON / FOUNTAIN",,  43.390986, -80.375501,,,0,
1631,1631,"PRESTON / WOODS",,  43.392149, -80.377391,,,0,
1632,1632,"PRESTON / HILLVIEW",,  43.394663, -80.377661,,,0,
1633,1633,"PRESTON / PARKVIEW",,  43.397276, -80.377943,,,0,
1634,1634,"PRESTON / LINDEN",,  43.399220, -80.376182,,,0,
1635,1635,"SHANTZ HILL / PRESTON PKWY",,  43.399956, -80.375693,,,0,
1636,1636,"GATEWAY PARK / KING",,  43.405829, -80.386093,,,0,
1637,1637,"GATEWAY PARK / TU LANE",,  43.407668, -80.389829,,,0,
1638,1638,"GATEWAY PARK / SPORTSWORLD",,  43.408096, -80.392468,,,0,
1639,1639,"SPORTSWORLD CROSSING / KING",,  43.409679, -80.397331,,,0,
1640,1640,"KING / DEER RIDGE",,  43.410727, -80.399593,,,0,
1641,1641,"KING / RIVERBANK",,  43.420106, -80.409272,,,0,
1642,1642,"FREEPORT HEALTH CENTRE",,  43.424092, -80.412272,,,0,
1643,1643,"KING / RIVER",,  43.425275, -80.419994,,,0,
1644,1644,"KING / HOFSTETTER",,  43.425748, -80.422584,,,0,
1645,1645,"KING / HEFFNER CRT",,  43.426758, -80.426590,,,0,
1646,1646,"KING / FAIRWAY",,  43.428266, -80.431097,,,0,
1647,1647,"FREEPORT HEALTH CENTRE",,  43.426025, -80.413402,,,0,
1648,1648,"MORRISON / GRAND RIVER",,  43.427849, -80.414460,,,0,
1649,1649,"PATH TO MORRISON PARK",,  43.429984, -80.416379,,,0,
1650,1650,"MORRISON / GRAND RIVER",,  43.432091, -80.414604,,,0,
1651,1651,"QUINTE / MORRISON",,  43.433599, -80.415417,,,0,
1652,1652,"MORRISON / QUINTE",,  43.431163, -80.416269,,,0,
1653,1653,"PATH TO MORRISON PARK",,  43.429840, -80.416368,,,0,
1654,1654,"HIGHLAND / EASTFOREST",,  43.429492, -80.531882,,,0,
1655,1655,"GRAND RIVER / UNDERHILL",,  43.427746, -80.415449,,,0,
1656,1656,"GRAND RIVER / RIVER",,  43.426910, -80.419151,,,0,
1657,1657,"MORGAN / RIVER",,  43.427675, -80.420972,,,0,
1658,1658,"MORGAN / GREENDALE",,  43.427334, -80.424744,,,0,
1659,1659,"MORGAN / SOUTHILL",,  43.428222, -80.427601,,,0,
1660,1660,"MORGAN / FAIRWAY",,  43.429697, -80.430825,,,0,
1661,1661,"KINGSWAY / WILSON",,  43.422806, -80.443045,,,0,
1664,1664,"RIVER / OLD CHICOPEE",,  43.439118, -80.433072,,,0,
1665,1665,"RIVER / RENNIE",,  43.443109, -80.438991,,,0,
1667,1667,"STANLEY PARK MALL TERMINAL",,  43.448905, -80.444079,,,0,place_SPM
1668,1668,"STANLEY PARK MALL TERMINAL",,  43.448931, -80.443844,,,0,place_SPM
1670,1670,"OTTAWA / MONTCALM",,  43.452804, -80.438592,,,0,
1671,1671,"OTTAWA / MCGEE",,  43.453976, -80.435158,,,0,
1678,1678,"LACKNER / VICTORIA",,  43.470895, -80.440663,,,0,
1680,1680,"NATCHEZ / ROTHSAY",,  43.468143, -80.448749,,,0,
1681,1681,"NATCHEZ / MATTHEW",,  43.465638, -80.446472,,,0,
1682,1682,"HALIFAX / NATCHEZ",,  43.463527, -80.445564,,,0,
1683,1683,"HALIFAX / CONFEDERATION",,  43.461780, -80.445667,,,0,
1684,1684,"CONFEDERATION / LORRAINE",,  43.460234, -80.442417,,,0,
1690,1690,"OTTAWA / MCGEE",,  43.453987, -80.435504,,,0,
1691,1691,"OTTAWA / MONTCALM",,  43.452833, -80.438901,,,0,
1693,1693,"RIVER / RENNIE",,  43.442929, -80.439116,,,0,
1694,1694,"RIVER / OLD CHICOPEE",,  43.438956, -80.433209,,,0,
1697,1697,"WILSON / FAIRWAY",,  43.420553, -80.442745,,,0,
1698,1698,"WILSON / WEBSTER",,  43.416229, -80.442389,,,0,
1699,1699,"805 WILSON",,  43.413456, -80.442489,,,0,
1700,1700,"WILSON / WABANAKI",,  43.411158, -80.442053,,,0,
1701,1701,"WABANAKI / KEVCO",,  43.409196, -80.442244,,,0,
1702,1702,"WABANAKI / MANITOU",,  43.408285, -80.447476,,,0,
1703,1703,"MANITOU / SASAGA",,  43.407094, -80.448796,,,0,
1704,1704,"421 MANITOU",,  43.404084, -80.448367,,,0,
1705,1705,"MANITOU / CAYUGA",,  43.401479, -80.447785,,,0,
1706,1706,"DOON VILLAGE / MILLWOOD",,  43.398035, -80.446829,,,0,
1707,1707,"Doon Village / Wheatfield Park",,  43.393464, -80.443808,,,0,
1708,1708,"DOON VILLAGE / BECHTEL",,  43.391783, -80.440749,,,0,
1709,1709,"BECHTEL / PATHFINDER",,  43.390489, -80.443033,,,0,
1710,1710,"BECHTEL / ANVIL",,  43.389975, -80.444889,,,0,
1711,1711,"BECHTEL / WHEATFIELD",,  43.389718, -80.449374,,,0,
1712,1712,"PIONEER / BLACK WALNUT",,  43.391569, -80.450468,,,0,
1713,1713,"PIONEER / VINTAGE",,  43.393874, -80.448546,,,0,
1714,1714,"PIONEER / DOON VILLAGE",,  43.395271, -80.445162,,,0,
1715,1715,"PIONEER / UPPER CANADA",,  43.393930, -80.441630,,,0,
1716,1716,"HIGHLAND / FISCHER-HALLMAN",,  43.431622, -80.526104,,,0,
1717,1717,"PIONEER / OLD CARRIAGE",,  43.394259, -80.433367,,,0,place_PPZ
1718,1718,"PIONEER / HOMER WATSON",,  43.395601, -80.431514,,,0,
1719,1719,"GREEN VALLEY / PIONEER",,  43.396097, -80.429917,,,0,
1720,1720,"GREEN VALLEY / ARROWHEAD",,  43.395146, -80.426999,,,0,
1721,1721,"GREEN VALLEY / MILL PARK",,  43.395888, -80.425893,,,0,
1722,1722,"OLD MILL / ROOS",,  43.394289, -80.417857,,,0,
1723,1723,"Old Mill / Pinnacle",,  43.393371, -80.414298,,,0,
1724,1724,"PINNACLE / AMHERST",,  43.392182, -80.414309,,,0,
1725,1725,"PINNACLE / DOON VALLEY",,  43.389864, -80.415381,,,0,
1727,1727,"DOON VALLEY / CONESTOGA",,  43.390810, -80.410186,,,0,
1728,1728,"CONESTOGA COLLEGE ENTRANCE",,  43.387998, -80.411628,,,0,
1729,1729,"CONESTOGA COLLEGE RESIDENCE",,  43.385228, -80.412067,,,0,
1731,1731,"CONESTOGA COLLEGE REC CENTRE",,  43.389629, -80.408074,,,0,
1732,1732,"CONESTOGA COLLEGE DOOR 3",,  43.390289, -80.403511,,,0,place_CCD
1733,1733,"CONESTOGA COLLEGE DAYCARE",,  43.391958, -80.404125,,,0,
1734,1734,"DOON VALLEY / ORCHARD MILL",,  43.391204, -80.409812,,,0,
1735,1735,"DOON VALLEY / PINNACLE",,  43.390215, -80.413489,,,0,
1736,1736,"PINNACLE / DOON VALLEY",,  43.390026, -80.415305,,,0,
1737,1737,"PINNACLE / AMHERST",,  43.391401, -80.414749,,,0,
1738,1738,"PINNACLE / OLD MILL",,  43.393325, -80.414138,,,0,
1739,1739,"OLD MILL / ROOS",,  43.394215, -80.417512,,,0,
1740,1740,"GREEN VALLEY / MILL PARK",,  43.395970, -80.426078,,,0,
1741,1741,"GREEN VALLEY / ARROWHEAD",,  43.395539, -80.428304,,,0,
1742,1742,"GREEN VALLEY / PIONEER",,  43.396105, -80.429756,,,0,
1743,1743,"PIONEER / HOMER WATSON",,  43.395646, -80.431637,,,0,
1744,1744,"PIONEER / OLD CARRIAGE",,  43.394279, -80.433663,,,0,place_PPZ
1745,1745,"PIONEER / BECHTEL",,  43.393529, -80.436893,,,0,
1746,1746,"PIONEER / BECHTEL",,  43.393656, -80.436990,,,0,
1747,1747,"PIONEER / UPPER CANADA",,  43.394120, -80.441715,,,0,
1748,1748,"PIONEER / DOON VILLAGE",,  43.395318, -80.445544,,,0,
1749,1749,"PIONEER / PERIN",,  43.394278, -80.448283,,,0,
1750,1750,"PIONEER / BLACK WALNUT",,  43.391642, -80.450690,,,0,
1751,1751,"BECHTEL / SABRINA",,  43.389129, -80.448539,,,0,
1752,1752,"BECHTEL / ANVIL",,  43.389991, -80.444383,,,0,
1753,1753,"DOON VILLAGE / BECHTEL",,  43.391890, -80.440600,,,0,
1754,1754,"Doon Village / Wheatfield Park",,  43.393580, -80.443622,,,0,
1755,1755,"DOON VILLAGE / FARRIER",,  43.398286, -80.446703,,,0,
1756,1756,"MANITOU / CAYUGA",,  43.401848, -80.447695,,,0,
1757,1757,"334 MANITOU",,  43.405480, -80.448354,,,0,
1758,1758,"MANITOU / WABANAKI",,  43.406948, -80.448538,,,0,
1759,1759,"WABANAKI / KEVCO",,  43.408779, -80.443458,,,0,
1760,1760,"WABANAKI / WILSON",,  43.409263, -80.441280,,,0,
1761,1761,"WILSON / WABANAKI",,  43.410886, -80.441722,,,0,
1762,1762,"808 WILSON",,  43.413464, -80.442316,,,0,
1763,1763,"WILSON / GOODRICH",,  43.415400, -80.442273,,,0,
1764,1764,"WILSON / FAIRWAY",,  43.420786, -80.442557,,,0,
1765,1765,"FOREST GLEN TERMINAL",,  43.413916, -80.478848,,,0,place_FGP
1766,1766,"FOREST GLEN TERMINAL",,  43.414114, -80.478896,,,0,place_FGP
1767,1767,"FOREST GLEN TERMINAL",,  43.414259, -80.478957,,,0,place_FGP
1768,1768,"FOREST GLEN TERMINAL",,  43.414457, -80.479029,,,0,place_FGP
1769,1769,"FOREST GLEN TERMINAL",,  43.414384, -80.478894,,,0,place_FGP
1770,1770,"FOREST GLEN TERMINAL",,  43.414204, -80.478858,,,0,place_FGP
1771,1771,"FOREST GLEN TERMINAL",,  43.414051, -80.478810,,,0,place_FGP
1772,1772,"FOREST GLEN TERMINAL",,  43.413889, -80.478762,,,0,place_FGP
1773,1773,"STRASBURG / OLD COUNTRY",,  43.410869, -80.476219,,,0,
1774,1774,"STRASBURG / BLEAMS",,  43.407398, -80.475150,,,0,
1775,1775,"STRASBURG / BLEAMS",,  43.406406, -80.474825,,,0,
1776,1776,"STRASBURG / SHOEMAKER",,  43.405621, -80.474412,,,0,
1777,1777,"MCINTYRE / STRASBURG",,  43.404468, -80.474397,,,0,
1778,1778,"MCINTYRE / MCBRINE",,  43.402996, -80.477349,,,0,
1779,1779,"222 MCINTYRE",,  43.402874, -80.480326,,,0,
1780,1780,"MCINTYRE / TRILLIUM",,  43.403454, -80.485039,,,0,
1781,1781,"TRILLIUM / WASHBURN",,  43.401052, -80.485479,,,0,
1782,1782,"TRILLIUM / NATURAL AREA",,  43.398938, -80.482113,,,0,
1783,1783,"680 TRILLIUM",,  43.398935, -80.477371,,,0,
1784,1784,"TRILLIUM / MCBRINE",,  43.399792, -80.473808,,,0,
1785,1785,"TRILLIUM / STRASBURG",,  43.400974, -80.468499,,,0,
1786,1786,"TRILLIUM / SHOEMAKER",,  43.401602, -80.466172,,,0,
1787,1787,"TRILLIUM / ADAM FERRIE",,  43.402246, -80.463326,,,0,
1788,1788,"TRILLIUM / STECKLE",,  43.402693, -80.460642,,,0,
1789,1789,"TRILLIUM / TRILLIUM PARK",,  43.399859, -80.459260,,,0,
1790,1790,"END OF GROFF",,  43.398732, -80.460752,,,0,
1791,1791,"TRILLIUM / GROFF",,  43.399200, -80.458858,,,0,
1792,1792,"TRILLIUM / STECKLE",,  43.402212, -80.459795,,,0,
1793,1793,"TRILLIUM / ADAM FERRIE",,  43.402548, -80.462397,,,0,
1794,1794,"TRILLIUM / SHOEMAKER",,  43.401720, -80.466245,,,0,
1795,1795,"TRILLIUM / STRASBURG",,  43.401029, -80.468647,,,0,
1796,1796,"TRILLIUM / MCBRINE",,  43.399996, -80.473262,,,0,
1797,1797,"640 TRILLIUM",,  43.399326, -80.476207,,,0,
1798,1798,"830 TRILLIUM",,  43.399047, -80.482149,,,0,
1799,1799,"TRILLIUM / WASHBURN",,  43.401485, -80.485648,,,0,
1800,1800,"MCINTYRE / TRILLIUM",,  43.403288, -80.484262,,,0,
1801,1801,"221 MCINTYRE",,  43.402747, -80.480043,,,0,
1802,1802,"MCINTYRE / MCBRINE",,  43.403057, -80.476867,,,0,
1803,1803,"MCINTYRE / STRASBURG",,  43.404466, -80.474063,,,0,
1804,1804,"STRASBURG / MCINTYRE",,  43.404175, -80.473436,,,0,
1805,1805,"STRASBURG / TRILLIUM",,  43.401749, -80.468579,,,0,
1806,1806,"STRASBURG / BATTLER",,  43.398637, -80.467544,,,0,
1807,1807,"HURON HEIGHTS S.S.",,  43.394623, -80.467950,,,0,place_HHS
1808,1808,"STRASBURG / HURON",,  43.392592, -80.466782,,,0,
1809,1809,"BATTLER / OLD HURON",,  43.395961, -80.461443,,,0,
1810,1810,"OLD HURON / MAXWELL",,  43.397206, -80.457937,,,0,
1811,1811,"BIEHN / CARLYLE",,  43.396014, -80.455503,,,0,
1812,1812,"BIEHN / MAXWELL",,  43.394394, -80.455555,,,0,
1820,1820,"BLACK WALNUT / BIEHN",,  43.393131, -80.455158,,,0,
1821,1821,"BLACK WALNUT",,  43.392519, -80.453361,,,0,
1822,1822,"BLACK WALNUT / PIONEER",,  43.391354, -80.450680,,,0,
1823,1823,"BECHTEL / DOON VILLAGE",,  43.391950, -80.439932,,,0,
1824,1824,"PIONEER / OLD CARRIAGE",,  43.393894, -80.434234,,,0,
1825,1825,"OLD CARRIAGE",,  43.392085, -80.432597,,,0,
1826,1826,"100 OLD CARRIAGE",,  43.391303, -80.431098,,,0,
1827,1827,"OLD CARRIAGE / HOMER WATSON",,  43.390945, -80.427854,,,0,
1828,1828,"OLD CARRIAGE / HOMER WATSON",,  43.391018, -80.428051,,,0,
1829,1829,"119 OLD CARRIAGE",,  43.391493, -80.431281,,,0,
1830,1830,"OLD CARRIAGE / PIONEER",,  43.393691, -80.433310,,,0,
1831,1831,"BECHTEL / DOON VILLAGE",,  43.391827, -80.440427,,,0,
1832,1832,"BLACK WALNUT / PIONEER",,  43.391510, -80.451185,,,0,
1833,1833,"BLACK WALNUT / CARLYLE",,  43.392791, -80.453581,,,0,
1834,1834,"BLACK WALNUT / BIEHN",,  43.393249, -80.455269,,,0,
1835,1835,"BIEHN / CARLYLE",,  43.395473, -80.455372,,,0,
1836,1836,"BIEHN / OLD HURON",,  43.397159, -80.455629,,,0,
1837,1837,"OLD HURON / MAXWELL",,  43.397260, -80.458134,,,0,
1838,1838,"OLD HURON / BATTLER",,  43.395921, -80.460579,,,0,
1839,1839,"HURON / HURON",,  43.392641, -80.465720,,,0,
1840,1840,"HURON HEIGHTS S.S.",,  43.394875, -80.467849,,,0,place_HHS
1841,1841,"STRASBURG / BATTLER",,  43.398699, -80.467297,,,0,
1842,1842,"STRASBURG / TRILLIUM",,  43.400944, -80.467870,,,0,
1843,1843,"1455 STRASBURG",,  43.402653, -80.469423,,,0,
1844,1844,"STRASBURG / MCINTYRE",,  43.404554, -80.473618,,,0,
1845,1845,"STRASBURG / SHOEMAKER",,  43.405981, -80.474384,,,0,
1846,1846,"BLEAMS / CENTURY HILL",,  43.408893, -80.465614,,,0,
1847,1847,"BLEAMS / HOMER WATSON",,  43.410343, -80.459895,,,0,
1848,1848,"BLEAMS / OTONABEE",,  43.412208, -80.452406,,,0,
1850,1850,"MANITOU / WEBSTER",,  43.416368, -80.450652,,,0,
1851,1851,"FAIRWAY / FOOD BASICS",,  43.419480, -80.451735,,,0,
1852,1852,"589 FAIRWAY",,  43.419979, -80.448729,,,0,
1853,1853,"FAIRWAY / WILSON",,  43.420522, -80.445623,,,0,
1854,1854,"FAIRWAY / WILSON",,  43.420867, -80.444335,,,0,
1855,1855,"500 FAIRWAY",,  43.420377, -80.447354,,,0,
1856,1856,"FAIRWAY / FOOD BASICS",,  43.419677, -80.451486,,,0,
1857,1857,"MANITOU / FAIRWAY",,  43.418271, -80.453080,,,0,
1858,1858,"MANITOU / WEBSTER",,  43.416415, -80.450948,,,0,
1859,1859,"MANITOU / CRESS",,  43.415626, -80.449855,,,0,
1861,1861,"BLEAMS / OTONABEE",,  43.412290, -80.452640,,,0,
1862,1862,"BLEAMS / HOMER WATSON",,  43.410478, -80.459919,,,0,
1863,1863,"BLEAMS / CENTURY HILL",,  43.408781, -80.466702,,,0,
1864,1864,"STRASBURG / BLEAMS",,  43.407640, -80.475024,,,0,
1865,1865,"STRASBURG / OLD COUNTRY",,  43.411049, -80.476069,,,0,
1866,1866,"THALER / FAIRWAY",,  43.434146, -80.431117,,,0,
1869,1869,"KINZIE / WALKER",,  43.433093, -80.436625,,,0,
1870,1870,"WEBER / KINZIE",,  43.432476, -80.439312,,,0,
1871,1871,"WEBER / FERGUS",,  43.433670, -80.442192,,,0,
1872,1872,"WEBER / ARLINGTON",,  43.433645, -80.444564,,,0,
1873,1873,"WEBER / FRANKLIN",,  43.434506, -80.447510,,,0,
1874,1874,"WEBER / EULER",,  43.435603, -80.450984,,,0,place_WSS
1875,1875,"WEBER / WILFRED",,  43.436279, -80.453054,,,0,
1876,1876,"WEBER / ROSS",,  43.437125, -80.454739,,,0,
1877,1877,"MONTGOMERY / WEBER",,  43.437738, -80.458750,,,0,
1878,1878,"KING / MONTGOMERY",,  43.437502, -80.460247,,,0,
1880,1880,"KING / ROCKWAY CENTRE",,  43.439836, -80.466293,,,0,
1881,1881,"KING / SYDNEY",,  43.441157, -80.469717,,,0,
1882,1882,"KING / OTTAWA",,  43.442123, -80.472069,,,0,
1883,1883,"KING / BORDEN",,  43.442777, -80.473497,,,0,
1884,1884,"KING / STIRLING",,  43.444179, -80.476735,,,0,
1885,1885,"KING / PANDORA",,  43.445188, -80.478765,,,0,
1886,1886,"KING / CAMERON",,  43.446079, -80.480636,,,0,
1887,1887,"KING / CEDAR",,  43.447344, -80.483579,,,0,
1888,1888,"KING / FREDERICK",,  43.449135, -80.487370,,,0,
1889,1889,"KING / QUEEN",,  43.449708, -80.488700,,,0,
1890,1890,"KING / ONTARIO",,  43.450437, -80.490610,,,0,
1903,1903,"VICTORIA / MARGARET",,  43.456228, -80.489186,,,0,
1910,1910,"KING / ELGIN",,  43.470100, -80.523579,,,0,
1911,1911,"KING / MARSHALL",,  43.472470, -80.524054,,,0,
1912,1912,"VICTORIA / MARGARET",,  43.456550, -80.488844,,,0,
1913,1913,"KING / UNIVERSITY",,  43.476039, -80.524793,,,0,place_KUN
1914,1914,"KING / HICKORY",,  43.477724, -80.525163,,,0,
1915,1915,"KING / COLUMBIA",,  43.481798, -80.526009,,,0,
1916,1916,"KING / WEBER",,  43.484988, -80.526677,,,0,
1917,1917,"KING / BLUE SPRINGS",,  43.487476, -80.527263,,,0,
1918,1918,"MANULIFE",,  43.491207, -80.528026,,,0,
1919,1919,"King / Hwy 85 Ramp",,  43.494394, -80.528656,,,0,
1920,1920,"NORTHFIELD / WISSLER",,  43.505207, -80.525554,,,0,
1921,1921,"VICTORIA / WEBER",,  43.454957, -80.493641,,,0,
1923,1923,"VICTORIA / LANCASTER",,  43.458590, -80.482151,,,0,
1924,1924,"VICTORIA / LANCASTER",,  43.458805, -80.482176,,,0,
1925,1925,"BRIDGE / EASTBRIDGE",,  43.503574, -80.509199,,,0,
1926,1926,"EASTBRIDGE / CABOT",,  43.504478, -80.505342,,,0,
1927,1927,"EASTBRIDGE / BONAVISTA",,  43.506124, -80.501931,,,0,
1928,1928,"EASTBRIDGE / BONAVISTA",,  43.508594, -80.500488,,,0,
1929,1929,"EASTBRIDGE / NEW BEDFORD",,  43.510620, -80.500484,,,0,
1930,1930,"VICTORIA / WEBER",,  43.454622, -80.494106,,,0,
1931,1931,"UNIVERSITY / LEXINGTON",,  43.504291, -80.496639,,,0,
1932,1932,"LACKNER / KEEWATIN",,  43.464899, -80.436915,,,0,
1933,1933,"LACKNER / KEEWATIN",,  43.464871, -80.436652,,,0,
1935,1935,"VICTORIA / FREDERICK",,  43.466295, -80.457952,,,0,
1936,1936,"VICTORIA / RIVER",,  43.464277, -80.464003,,,0,
1937,1937,"VICTORIA / RIVER",,  43.464405, -80.464389,,,0,
1941,1941,"BRIDGE / BRIDLE",,  43.485339, -80.488595,,,0,
1942,1942,"BRIDGE / WOOLWICH",,  43.482763, -80.484761,,,0,
1943,1943,"LANCASTER / JONES",,  43.481594, -80.483139,,,0,
1944,1944,"LANCASTER / GENERAL",,  43.479277, -80.484531,,,0,
1945,1945,"LANCASTER / LANG",,  43.478062, -80.484505,,,0,
1946,1946,"BRIDGEPORT / LANCASTER",,  43.476507, -80.485124,,,0,
1947,1947,"BRIDGEPORT / MACKIE",,  43.475544, -80.487333,,,0,
1948,1948,"BRIDGEPORT / LANG",,  43.474945, -80.490280,,,0,
1949,1949,"BRIDGEPORT / GOLDBECK",,  43.472560, -80.498720,,,0,
1950,1950,"BRIDGEPORT / BLUEVALE",,  43.472508, -80.501156,,,0,
1951,1951,"BRIDGEPORT / MARGARET",,  43.472352, -80.504595,,,0,
1952,1952,"BRIDGEPORT / ELLIS",,  43.471637, -80.508025,,,0,
1954,1954,"BRIDGEPORT / WEBER",,  43.469833, -80.513653,,,0,
1955,1955,"BRIDGEPORT / DEVITT",,  43.469165, -80.515241,,,0,
1956,1956,"BRIDGEPORT / PEPPLER",,  43.468114, -80.520256,,,0,
1957,1957,"KING / BRIDGEPORT",,  43.467334, -80.523081,,,0,
1960,1960,"CAROLINE / ERB",,  43.463738, -80.524593,,,0,
1961,1961,"ERB / FATHER DAVID BAUER",,  43.464131, -80.525999,,,0,
1962,1962,"ERB / WELLS",,  43.463213, -80.528132,,,0,
1963,1963,"ERB / AVONDALE",,  43.462258, -80.530328,,,0,
1964,1964,"ERB / BEVERLEY",,  43.461152, -80.532908,,,0,
1965,1965,"ERB / DIETZ",,  43.460171, -80.535153,,,0,
1966,1966,"ERB / WESTMOUNT",,  43.459047, -80.537757,,,0,
1967,1967,"ERB / MCDOUGALL",,  43.457446, -80.540501,,,0,
1968,1968,"ERB / MULBERRY",,  43.456508, -80.542362,,,0,
1969,1969,"ERB / AMOS",,  43.455364, -80.546096,,,0,
1970,1970,"ERB / CULPEPPER",,  43.454629, -80.547543,,,0,
1971,1971,"ERB / CHURCHILL",,  43.453374, -80.551137,,,0,
1972,1972,"FISCHER-HALLMAN / ERB",,  43.452906, -80.553686,,,0,
1974,1974,"KEATS WAY / SANDFORD FLEMING",,  43.455992, -80.562204,,,0,
1975,1975,"KEATS WAY / SANDFORD FLEMING",,  43.456956, -80.564905,,,0,
1976,1976,"KEATS WAY / LEIGHLAND",,  43.457636, -80.568324,,,0,
1977,1977,"KEATS WAY / BEECHWOOD",,  43.456692, -80.571037,,,0,
1978,1978,"KEATS WAY / ERBSVILLE",,  43.455908, -80.573280,,,0,
1979,1979,"PATH TO LAUSANNE",,  43.453269, -80.572059,,,0,
1980,1980,"ERBSVILLE / BRANDENBURG",,  43.451329, -80.572188,,,0,
1981,1981,"ERBSVILLE / CHABLIS",,  43.450035, -80.572765,,,0,
1982,1982,"QUEEN / WOODSIDE",,  43.441701, -80.497316,,,0,
1983,1983,"ERB / ERBSVILLE CRT",,  43.448019, -80.566044,,,0,
1984,1984,"ERB / GATEVIEW",,  43.450834, -80.557832,,,0,
1985,1985,"GATEVIEW / WESTVALE",,  43.450049, -80.557613,,,0,
1986,1986,"WESTVALE / HEATHER HILL",,  43.448493, -80.558367,,,0,
1987,1987,"VICTORIA / EDNA",,  43.460814, -80.474929,,,0,
1988,1988,"WESTVALE / EDENVALLEY",,  43.445863, -80.560152,,,0,
1989,1989,"VICTORIA / NATCHEZ",,  43.469229, -80.448953,,,0,
1990,1990,"OLD ZELLER / ZELLER",,  43.454120, -80.411792,,,0,
1991,1991,"OLD ZELLER / EDEN OAK TRAIL",,  43.452806, -80.407750,,,0,
1992,1992,"FISCHER-HALLMAN / THORNDALE",,  43.448678, -80.550034,,,0,
1993,1993,"ZELLER / PEBBLECREEK",,  43.451058, -80.406680,,,0,
1994,1994,"ERB / FISCHER-HALLMAN",,  43.452597, -80.552836,,,0,
1995,1995,"ERB / ROOSEVELT",,  43.453844, -80.549328,,,0,
1996,1996,"ERB / CULPEPPER",,  43.454538, -80.547321,,,0,
1997,1997,"ERB / AMOS",,  43.455232, -80.545313,,,0,
1998,1998,"ERB / MCDOUGALL",,  43.456551, -80.541867,,,0,
1999,1999,"ERB / WESTMOUNT",,  43.459482, -80.536283,,,0,
2000,2000,"ERB / DIETZ",,  43.460687, -80.533603,,,0,
2001,2001,"ERB / ROSLIN",,  43.461481, -80.531731,,,0,
2002,2002,"ERB / AVONDALE",,  43.462480, -80.529448,,,0,
2003,2003,"ERB / EUCLID",,  43.463193, -80.527786,,,0,
2004,2004,"ERB / CAROLINE",,  43.464139, -80.525628,,,0,
2006,2006,"ERB / KING",,  43.465276, -80.521849,,,0,place_KWW
2007,2007,"ERB / WILLOW",,  43.465728, -80.518124,,,0,
2008,2008,"OLD ZELLER / FAIRWAY",,  43.448364, -80.404791,,,0,
2009,2009,"ERB / DEVITT",,  43.467336, -80.514027,,,0,
2010,2010,"ERB / WEBER",,  43.468649, -80.510436,,,0,
2011,2011,"ERB / ELLIS",,  43.470027, -80.506320,,,0,
2012,2012,"ERB / CARDINAL",,  43.470758, -80.502444,,,0,
2013,2013,"ERB / TERRYSTONE",,  43.471671, -80.499173,,,0,
2014,2014,"BRIDGEPORT / LEANDER",,  43.474933, -80.489539,,,0,
2015,2015,"BRIDGEPORT / MACKIE",,  43.475293, -80.487594,,,0,
2016,2016,"BRIDGEPORT / LANCASTER",,  43.476202, -80.485448,,,0,
2017,2017,"OLDFIELD / EDENBRIDGE",,  43.449248, -80.428804,,,0,
2018,2018,"ZELLER / SUSAN",,  43.452656, -80.420612,,,0,
2019,2019,"ZELLER / WILD MEADOW",,  43.453234, -80.417438,,,0,
2020,2020,"LANCASTER / LANG",,  43.477917, -80.484333,,,0,
2021,2021,"LANCASTER / GENERAL",,  43.479276, -80.484333,,,0,
2022,2022,"BRIDGE / WOOLWICH",,  43.482788, -80.484403,,,0,
2023,2023,"BRIDGE / BRIDLE TRAIL",,  43.485412, -80.488414,,,0,
2028,2028,"FAIRWAY / PEBBLECREEK",,  43.446700, -80.409043,,,0,
2031,2031,"FAIRWAY / PEBBLECREEK",,  43.446676, -80.408596,,,0,
2032,2032,"OLD ZELLER / FAIRWAY",,  43.448450, -80.404614,,,0,
2033,2033,"ZELLER / WATERVALE",,  43.451165, -80.406603,,,0,
2034,2034,"OLD ZELLER / EDEN OAK",,  43.453644, -80.408093,,,0,
2035,2035,"UNIVERSITY / LEXINGTON",,  43.504588, -80.496587,,,0,
2036,2036,"OLD ZELLER / ZELLER",,  43.454047, -80.412095,,,0,
2037,2037,"ZELLER / BROOKMEAD",,  43.453797, -80.415028,,,0,
2038,2038,"PATH TO ST. LUKE",,  43.508658, -80.500673,,,0,
2039,2039,"EASTBRIDGE / WINDJAMMER",,  43.505635, -80.503407,,,0,
2040,2040,"EASTBRIDGE / MAYFLOWER",,  43.504566, -80.505927,,,0,
2041,2041,"EASTBRIDGE / BRIDGE",,  43.503875, -80.509290,,,0,
2042,2042,"ZELLER / JANET",,  43.452735, -80.420972,,,0,
2043,2043,"ZELLER / LACKNER",,  43.450013, -80.423600,,,0,
2056,2056,"OLDFIELD / EDENBRIDGE",,  43.449321, -80.428683,,,0,
2067,2067,"FROBISHER / DAVENPORT",,  43.505278, -80.529524,,,0,
2068,2068,"WEBER / NORTHFIELD",,  43.497600, -80.550463,,,0,
2069,2069,"NORTHLAKE / BLACK FOREST",,  43.502236, -80.556960,,,0,
2070,2070,"NORTHLAKE / FERN",,  43.501212, -80.559899,,,0,
2071,2071,"NORTHLAKE / TWINFLOWER",,  43.498976, -80.564022,,,0,
2072,2072,"NORTHLAKE / BURNING BUSH",,  43.497620, -80.567247,,,0,
2073,2073,"NORTHLAKE / CONSERVATION",,  43.495616, -80.566012,,,0,
2074,2074,"CONSERVATION / WESTMOUNT",,  43.494306, -80.569658,,,0,
2075,2075,"CONSERVATION / COLDSTREAM",,  43.492774, -80.573985,,,0,
2076,2076,"Activa / Grey Fox",,  43.413217, -80.508928,,,0,
2077,2077,"LAKE LOUISE / GLACIER",,  43.494614, -80.577225,,,0,
2078,2078,"LAKE LOUISE / OSPREY",,  43.496630, -80.572078,,,0,
2079,2079,"CONSERVATION / WESTMOUNT",,  43.494590, -80.568431,,,0,
2080,2080,"NORTHLAKE / CONSERVATION",,  43.495905, -80.566097,,,0,
2081,2081,"NORTHLAKE / TWINFLOWER",,  43.498628, -80.564643,,,0,
2082,2082,"NORTHLAKE / MONARCH",,  43.500209, -80.561390,,,0,
2083,2083,"NORTHLAKE / BLACK FOREST",,  43.502189, -80.556490,,,0,
2084,2084,"WEBER / NORTHFIELD",,  43.497610, -80.550661,,,0,
2088,2088,"NORTHFIELD / WISSLER",,  43.505109, -80.525876,,,0,
2091,2091,"FARMERS MARKET/ BENJAMIN",,  43.510056, -80.555888,,,0,
2092,2092,"KING / HENRY",,  43.532985, -80.554569,,,0,
2094,2094,"KING / FRONT",,  43.540580, -80.553374,,,0,
2097,2097,"BEVERLY / DUNDAS",,  43.366432, -80.305464,,,0,
2098,2098,"BEVERLY / SAMUELSON",,  43.368711, -80.304056,,,0,
2099,2099,"SAMUELSON / BEVERLY",,  43.370491, -80.303517,,,0,
2100,2100,"MOSCRIP / ELMWOOD",,  43.371250, -80.306927,,,0,
2101,2101,"ELMWOOD / BROCK",,  43.373225, -80.310386,,,0,
2102,2102,"ELMWOOD / JARVIS",,  43.374737, -80.313257,,,0,
2103,2103,"ELMWOOD / BROOKLYNE",,  43.376513, -80.316644,,,0,
2104,2104,"Avenue / Gail",,  43.378351, -80.310908,,,0,
2106,2106,"FRANKLIN / WINSTON",,  43.420719, -80.310586,,,0,
2107,2107,"FRANKLIN / WINSTON",,  43.420973, -80.310279,,,0,
2108,2108,"ELGIN / AVENUE",,  43.378450, -80.306388,,,0,
2109,2109,"ELGIN / WINTER",,  43.376762, -80.305704,,,0,
2110,2110,"ELGIN / GALT",,  43.373939, -80.303465,,,0,
2111,2111,"ELGIN / BRONSON",,  43.372065, -80.302742,,,0,
2114,2114,"470 FRANKLIN",,  43.367680, -80.293021,,,0,
2120,2120,"CHALMERS / DUNDAS",,  43.362294, -80.301599,,,0,
2121,2121,"CHALMERS / MCNAUGHTON",,  43.360867, -80.300998,,,0,
2122,2122,"MCNAUGHTON / LINCOLN",,  43.360276, -80.302918,,,0,
2123,2123,"MCNAUGHTON / OAK",,  43.359968, -80.305649,,,0,
2124,2124,"MCNAUGHTON / SHADE",,  43.360646, -80.307579,,,0,
2125,2125,"MAIN / HARRIS",,  43.358881, -80.310486,,,0,
2126,2126,"GRAND / VICTORIA",,  43.352114, -80.317165,,,0,
2127,2127,"CROMBIE / GRAND",,  43.350925, -80.317178,,,0,
2128,2128,"MIDDLETON / FRANCIS",,  43.348247, -80.318096,,,0,
2129,2129,"FIRST / CAEN",,  43.346889, -80.319777,,,0,
2130,2130,"STANLEY / GLENMORRIS",,  43.347442, -80.322066,,,0,
2131,2131,"STANLEY / TAIT",,  43.346779, -80.325516,,,0,
2132,2132,"STANLEY / ST. ANDREWS",,  43.346490, -80.328505,,,0,
2133,2133,"ST. GREGORYS / CALEDON",,  43.348200, -80.328350,,,0,
2134,2134,"WOODSIDE / VICTORIA",,  43.349502, -80.329323,,,0,
2135,2135,"142 WOODSIDE",,  43.350247, -80.331968,,,0,
2136,2136,"WOODSIDE / CEDAR",,  43.350626, -80.333679,,,0,
2137,2137,"SOUTHGATE / DAY",,  43.352143, -80.334341,,,0,
2138,2138,"CHURCHILL / DALE",,  43.353337, -80.333772,,,0,
2139,2139,"HILLCREST / CHURCHILL",,  43.354031, -80.332259,,,0,
2140,2140,"HILLCREST / HIGHLAND",,  43.356106, -80.332940,,,0,
2141,2141,"SALISBURY / SOUTHGATE",,  43.356541, -80.336600,,,0,
2142,2142,"SALISBURY / MURRAY",,  43.356781, -80.339115,,,0,
2143,2143,"KENT / SALISBURY",,  43.355220, -80.341748,,,0,
2144,2144,"KENT / HILLSBORO",,  43.353397, -80.340966,,,0,
2145,2145,"KENT / SIM",,  43.352280, -80.340916,,,0,
2146,2146,"KENT / CEDAR",,  43.349877, -80.339486,,,0,
2149,2149,"WOODSIDE / CEDAR",,  43.349981, -80.332698,,,0,
2150,2150,"WOODSIDE / VICTORIA",,  43.349241, -80.329338,,,0,
2151,2151,"ST. GREGORYS / ST. ANDREWS",,  43.347900, -80.327922,,,0,
2152,2152,"STANLEY / BORDEN",,  43.346307, -80.328050,,,0,
2153,2153,"STANLEY / TAIT",,  43.346680, -80.325529,,,0,
2154,2154,"STANLEY / GLENMORRIS",,  43.347317, -80.322240,,,0,
2155,2155,"FIRST / CAEN",,  43.346816, -80.319704,,,0,
2156,2156,"MIDDLETON / FRANCIS",,  43.348580, -80.318056,,,0,
2157,2157,"CROMBIE / GRAND",,  43.350914, -80.316845,,,0,
2158,2158,"GRAND / CEDAR",,  43.353024, -80.317290,,,0,
2159,2159,"AINSLIE / VETERANS",,  43.354469, -80.313486,,,0,
2160,2160,"OAK / MAIN",,  43.357258, -80.307185,,,0,
2161,2161,"RICH / LINCOLN",,  43.358562, -80.302469,,,0,
2162,2162,"POLLOCK / LINCOLN",,  43.357963, -80.301587,,,0,
2163,2163,"POLLOCK / CHALMERS",,  43.358404, -80.300126,,,0,
2164,2164,"POLLOCK / ELGIN",,  43.358885, -80.297788,,,0,
2165,2165,"ELGIN / DUNDAS",,  43.360841, -80.298123,,,0,
2166,2166,"ELGIN / LINNWOOD",,  43.362014, -80.298603,,,0,
2167,2167,"ELGIN / MANCHESTER",,  43.365029, -80.299840,,,0,
2168,2168,"ELGIN / MARION",,  43.366555, -80.300439,,,0,
2169,2169,"ALISON / ELGIN",,  43.368166, -80.300334,,,0,
2170,2170,"ALISON / RADFORD",,  43.368804, -80.297192,,,0,
2171,2171,"ALISON / LAURIS",,  43.367024, -80.294793,,,0,
2172,2172,"ALISON / HILLTOP",,  43.364425, -80.293762,,,0,
2173,2173,"HILLTOP / FRANKLIN",,  43.364343, -80.292270,,,0,
2174,2174,"FRANKLIN / GREEN GATE",,  43.356877, -80.286260,,,0,
2175,2175,"FRANKLIN / DUNDAS",,  43.354885, -80.287357,,,0,
2176,2176,"DUNDAS / FRANKLIN",,  43.355752, -80.289124,,,0,
2177,2177,"ELGIN / ELLIOTT",,  43.354938, -80.295908,,,0,
2178,2178,"ELGIN / SOUTH",,  43.353702, -80.295404,,,0,
2179,2179,"ELGIN / WOOLLEY",,  43.350661, -80.294201,,,0,
2180,2180,"ELGIN / CHAMPLAIN",,  43.348186, -80.293235,,,0,
2181,2181,"CHAMPLAIN / BRIERDALE",,  43.347039, -80.296987,,,0,
2182,2182,"CHAMPLAIN / CHRISTOPHER",,  43.346547, -80.299003,,,0,
2183,2183,"CHRISTOPHER / FOSTER",,  43.348447, -80.300425,,,0,
2184,2184,"CHRISTOPHER / BALLANTYNE",,  43.350423, -80.301205,,,0,
2185,2185,"CHRISTOPHER / ELLIOTT",,  43.353953, -80.302620,,,0,
2186,2186,"MAIN / WATER",,  43.359035, -80.315075,,,0,
2187,2187,"North Square / Grand",,  43.359222, -80.317838,,,0,
2188,2188,"GEORGE / BLAIR",,  43.361497, -80.318725,,,0,
2189,2189,"GEORGE / HOBSON",,  43.363585, -80.318665,,,0,
2190,2190,"GEORGE / JAMES",,  43.366570, -80.320853,,,0,
2191,2191,"SUNSET / SAXONY",,  43.368313, -80.324857,,,0,
2192,2192,"SUNSET / BISMARK",,  43.370473, -80.326130,,,0,
2193,2193,"SUNSET / BLAIR ROAD P.S.",,  43.372579, -80.327563,,,0,
2194,2194,"SUNSET / CLEARVIEW",,  43.373749, -80.330525,,,0,
2195,2195,"CLEARVIEW / BLAIR",,  43.372435, -80.333625,,,0,
2196,2196,"BISMARK / BLAIR",,  43.370987, -80.332394,,,0,
2197,2197,"BLAIR / KENMORE",,  43.369499, -80.330411,,,0,
2198,2198,"BLAIR / SHERWOOD",,  43.367757, -80.328282,,,0,
2199,2199,"BLAIR / GRANT",,  43.366723, -80.327047,,,0,
2200,2200,"BLAIR / JAMES",,  43.363899, -80.322993,,,0,
2201,2201,"BLENHEIM / LANSDOWNE",,  43.361612, -80.321390,,,0,
2202,2202,"BLENHEIM / VAIR",,  43.361582, -80.325611,,,0,
2203,2203,"PARKWOOD / BLENHEIM",,  43.359540, -80.332075,,,0,
2204,2204,"SALISBURY / CORWIN",,  43.357218, -80.332286,,,0,
2205,2205,"HILLCREST / HIGHLAND",,  43.356260, -80.333148,,,0,
2206,2206,"HILLCREST / CHURCHILL",,  43.353752, -80.332299,,,0,
2207,2207,"CHURCHILL / WESTGATE",,  43.353885, -80.330521,,,0,
2208,2208,"CHURCHILL / LANEWAY 131",,  43.354718, -80.326699,,,0,
2209,2209,"CHURCHILL / BARRIE",,  43.354710, -80.325341,,,0,
2210,2210,"CHURCHILL / LANSDOWNE",,  43.354710, -80.321939,,,0,
2211,2211,"ST. ANDREWS / GRAND",,  43.356503, -80.317905,,,0,
2212,2212,"MAIN / MILL",,  43.358817, -80.313276,,,0,
2213,2213,"MAIN / BRUCE",,  43.356919, -80.307683,,,0,
2214,2214,"MAIN / PECK",,  43.356557, -80.304454,,,0,
2215,2215,"MAIN / LINCOLN",,  43.356241, -80.301286,,,0,
2216,2216,"MAIN / ELGIN",,  43.356564, -80.296667,,,0,
2217,2217,"MAIN / FRANKLIN",,  43.358241, -80.286911,,,0,
2218,2218,"PATH TO ELLIOTT",,  43.353517, -80.288842,,,0,
2219,2219,"FRANKLIN / MORNING CALM",,  43.351487, -80.289618,,,0,
2220,2220,"CHAMPLAIN / FRANKLIN",,  43.348314, -80.287619,,,0,
2221,2221,"CHAMPLAIN / CARLOS",,  43.349186, -80.284611,,,0,
2222,2222,"LISBON PINES / CHAMPLAIN",,  43.349543, -80.281213,,,0,
2223,2223,"LISBON PINES / SANTA MARIA",,  43.346452, -80.280830,,,0,
2224,2224,"LISBON PINES / MYERS",,  43.344855, -80.280269,,,0,
2225,2225,"GATEHOUSE / MCNICHOL",,  43.343164, -80.279167,,,0,
2226,2226,"GATEHOUSE / WHEELER",,  43.341307, -80.280274,,,0,
2227,2227,"GATEHOUSE / FLOCKHART",,  43.341583, -80.282627,,,0,
2228,2228,"GATEHOUSE / MYERS",,  43.343717, -80.284107,,,0,
2229,2229,"MYERS / FRANKLIN",,  43.343629, -80.285749,,,0,
2230,2230,"MYERS / ELGIN",,  43.342683, -80.291485,,,0,
2231,2231,"MYERS / GREENBRIER",,  43.342240, -80.294069,,,0,
2232,2232,"FAIRVIEW PARK TERMINAL",,  43.423294, -80.441181,,,0,place_FVM
2233,2233,"CHRISTOPHER / MYERS",,  43.341462, -80.300814,,,0,
2234,2234,"CHRISTOPHER / TUTTON",,  43.343928, -80.300687,,,0,
2235,2235,"CHAMPLAIN / CHRISTOPHER",,  43.346338, -80.300141,,,0,
2236,2236,"MCDONALD / DORSET",,  43.346239, -80.303128,,,0,
2237,2237,"GLENVIEW / MCDONALD",,  43.348069, -80.304896,,,0,
2238,2238,"GLENVIEW / HENRY",,  43.347328, -80.308952,,,0,
2239,2239,"GLENVIEW / ALBERT",,  43.347102, -80.310311,,,0,
2240,2240,"ALBERT / BALLANTYNE",,  43.348709, -80.311033,,,0,
2241,2241,"BALLANTYNE / MCKAY",,  43.349487, -80.307076,,,0,
2242,2242,"MCKAY / SOUTH",,  43.350929, -80.307393,,,0,
2243,2243,"CENTRE / ELLIOTT",,  43.352800, -80.308581,,,0,
2244,2244,"CENTRE / CONCESSION",,  43.354054, -80.308949,,,0,
2245,2245,"Grand / South Square",,  43.358501, -80.317624,,,0,
2246,2246,"ST. ANDREWS / GEORGE",,  43.356541, -80.318213,,,0,
2247,2247,"ST. ANDREWS / FRASER",,  43.354429, -80.321976,,,0,
2248,2248,"ST. ANDREWS / CEDAR",,  43.352674, -80.323587,,,0,
2249,2249,"WESTGATE CTR",,  43.351556, -80.329362,,,0,
2250,2250,"SOUTHWOOD / CEDAR",,  43.349759, -80.336217,,,0,
2251,2251,"SOUTHWOOD / WESTWOOD",,  43.346465, -80.335106,,,0,
2252,2252,"SOUTHWOOD / WEDGEWOOD",,  43.344830, -80.334100,,,0,
2253,2253,"WEDGEWOOD / GRAND RIDGE",,  43.342923, -80.337526,,,0,
2254,2254,"GRAND RIDGE / MARK",,  43.341554, -80.335961,,,0,
2255,2255,"GRAND RIDGE / ST. ANDREWS",,  43.340733, -80.334144,,,0,
2256,2256,"GRAND RIDGE / STIRLING MACGREGOR",,  43.338886, -80.332413,,,0,
2257,2257,"GRAND RIDGE / OAK HILL",,  43.336472, -80.330737,,,0,
2262,2262,"FOURTH / VINCENT",,  43.342902, -80.327755,,,0,
2263,2263,"FOURTH / ST. ANDREWS",,  43.343167, -80.331453,,,0,
2264,2264,"SOUTHWOOD / ST. ANDREWS",,  43.344689, -80.331597,,,0,
2265,2265,"SOUTHWOOD / WESTWOOD",,  43.346086, -80.334851,,,0,
2266,2266,"SOUTHWOOD / CEDAR",,  43.350137, -80.336176,,,0,
2268,2268,"Grand / South Square",,  43.358590, -80.317499,,,0,
2269,2269,"CHRISTOPHER / ELLIOTT",,  43.354134, -80.302754,,,0,
2270,2270,"CHRISTOPHER / SOUTH",,  43.352067, -80.301963,,,0,
2271,2271,"BALLANTYNE / EAST",,  43.350271, -80.302835,,,0,
2272,2272,"BALLANTYNE / MCDONALD",,  43.349915, -80.304912,,,0,
2273,2273,"BALLANTYNE / MCKAY",,  43.349585, -80.306927,,,0,
2274,2274,"MCKAY / GLENVIEW",,  43.347799, -80.306503,,,0,
2275,2275,"GLENVIEW / MCDONALD",,  43.347986, -80.304626,,,0,
2276,2276,"MCDONALD / DORSET",,  43.346402, -80.303274,,,0,
2277,2277,"CHAMPLAIN / CHRISTOPHER",,  43.346238, -80.299994,,,0,
2278,2278,"CHRISTOPHER / TUTTON",,  43.343813, -80.300960,,,0,
2279,2279,"CHRISTOPHER / MYERS",,  43.341318, -80.300939,,,0,
2280,2280,"MYERS / WOODLAND",,  43.340188, -80.306109,,,0,
2281,2281,"EDGEMERE / SANDALWOOD",,  43.339281, -80.307932,,,0,
2282,2282,"EDGEMERE / PLOUGHMANS",,  43.338033, -80.307021,,,0,
2283,2283,"EDGEMERE / LANGLAW",,  43.335858, -80.306331,,,0,
2284,2284,"LANGLAW / ENFIELD",,  43.336131, -80.303712,,,0,
2285,2285,"CHRISTOPHER / WHEATLAND",,  43.338005, -80.299484,,,0,
2286,2286,"CHRISTOPHER / MYERS",,  43.340514, -80.300529,,,0,
2287,2287,"MYERS / LORRAINE",,  43.341497, -80.297704,,,0,
2288,2288,"MYERS / GREENBRIER",,  43.342227, -80.293501,,,0,
2289,2289,"MYERS / ELGIN",,  43.342742, -80.290356,,,0,
2291,2291,"FRANKLIN / MYERS",,  43.343772, -80.287093,,,0,
2292,2292,"FRANKLIN / COPPERFIELD",,  43.346715, -80.288243,,,0,
2293,2293,"CHAMPLAIN / BAKERSFIELD",,  43.348496, -80.289431,,,0,
2294,2294,"CHAMPLAIN / ELGIN",,  43.348052, -80.291941,,,0,
2295,2295,"ELGIN / WOOLLEY",,  43.351426, -80.294357,,,0,
2297,2297,"ELGIN / ELLIOTT",,  43.354405, -80.295594,,,0,
2298,2298,"ELGIN / MAIN",,  43.356436, -80.296409,,,0,
2299,2299,"SOUTH / CHALMERS",,  43.353121, -80.297657,,,0,
2300,2300,"CHALMERS / MAIN",,  43.356028, -80.298931,,,0,
2301,2301,"MAIN / LOWREY",,  43.356283, -80.300779,,,0,
2302,2302,"MAIN / CATHAY",,  43.356531, -80.303109,,,0,
2303,2303,"MAIN / ARTHUR WHITE",,  43.356811, -80.306228,,,0,
2304,2304,"MAIN / SPRUCE",,  43.357146, -80.307976,,,0,
2308,2308,"HOMER WATSON",,  43.387470, -80.411959,,,0,
2310,2310,"CHERRY BLOSSOM / BARNES",,  43.415296, -80.383428,,,0,
2312,2312,"CHERRY BLOSSOM / FOUNTAIN",,  43.412631, -80.375130,,,0,
2313,2313,"BISHOP / MARY",,  43.392515, -80.339491,,,0,
2314,2314,"FOUNTAIN / TOYOTA GATE 1",,  43.416272, -80.375698,,,0,
2315,2315,"FOUNTAIN / TOYOTA GATE 2",,  43.418960, -80.376659,,,0,
2316,2316,"LOBLAWS",,  43.429058, -80.379026,,,0,
2317,2317,"MAPLE GROVE / FOUNTAIN",,  43.423795, -80.381551,,,0,
2318,2318,"MAPLE GROVE / CHERRY BLOSSOM",,  43.416556, -80.387604,,,0,
2319,2319,"WEBER / QUEEN",,  43.451861, -80.487051,,,0,
2320,2320,"QUEEN / AHRENS",,  43.453209, -80.486397,,,0,
2327,2327,"BISHOP / MARY",,  43.392407, -80.339159,,,0,
2333,2333,"VICTORIA / FREDERICK",,  43.466240, -80.457432,,,0,
2335,2335,"VICTORIA / FORFAR",,  43.467375, -80.453824,,,0,
2336,2336,"VICTORIA / NATCHEZ",,  43.468414, -80.450675,,,0,
2337,2337,"1373 VICTORIA ST",,  43.469532, -80.447389,,,0,
2339,2339,"LACKNER / VICTORIA",,  43.470941, -80.440885,,,0,
2344,2344,"NATCHEZ / HALIFAX",,  43.464507, -80.445308,,,0,
2345,2345,"NATCHEZ / MATTHEW",,  43.465728, -80.446372,,,0,
2346,2346,"NATCHEZ / ROTHSAY",,  43.467952, -80.448318,,,0,
2347,2347,"VICTORIA / NATCHEZ",,  43.468479, -80.451119,,,0,
2348,2348,"VICTORIA / FORFAR",,  43.467360, -80.454492,,,0,
2350,2350,"FREDERICK / TURNER",,  43.464181, -80.459284,,,0,
2352,2352,"VICTORIA / INDIANA",,  43.460584, -80.476593,,,0,
2358,2358,"QUEEN / AHRENS",,  43.453380, -80.486346,,,0,
2359,2359,"WEBER / SCOTT",,  43.450436, -80.484344,,,0,
2361,2361,"KRUG / SAMUEL",,  43.450961, -80.477121,,,0,
2362,2362,"KRUG / LYDIA",,  43.451867, -80.474493,,,0,
2363,2363,"KRUG / EAST",,  43.452650, -80.472287,,,0,
2364,2364,"KRUG / MELROSE",,  43.453253, -80.470427,,,0,
2366,2366,"KRUG / BECKER",,  43.454212, -80.467490,,,0,
2369,2369,"KRUG / CAMBRIDGE",,  43.455591, -80.463881,,,0,
2370,2370,"KRUG / ETON",,  43.456016, -80.462381,,,0,
2371,2371,"KRUG / SHERWOOD",,  43.457235, -80.461097,,,0,
2372,2372,"KRUG / RIVER",,  43.458318, -80.457824,,,0,
2373,2373,"LORRAINE / BIRKSHIRE",,  43.457822, -80.448262,,,0,
2379,2379,"OLD CHICOPEE / HOLBORN",,  43.451217, -80.439917,,,0,
2380,2380,"80 HOLBORN DR",,  43.450537, -80.439679,,,0,
2381,2381,"HOLBORN / RIVER",,  43.449185, -80.443052,,,0,
2382,2382,"HOLBORN / HOLBORN",,  43.449353, -80.441776,,,0,
2383,2383,"HOLBORN / OLD CHICOPEE",,  43.450325, -80.439703,,,0,
2384,2384,"OLD CHICOPEE / OTTAWA",,  43.452057, -80.440478,,,0,
2385,2385,"LACKNER / OTTAWA",,  43.457501, -80.432282,,,0,
2389,2389,"CONFEDERATION / LORRAINE",,  43.460341, -80.442367,,,0,
2394,2394,"LORRAINE / BIRKSHIRE",,  43.457762, -80.448843,,,0,
2395,2395,"KRUG / RIVER",,  43.458329, -80.458306,,,0,
2396,2396,"KRUG / SHERWOOD",,  43.457495, -80.460934,,,0,
2400,2400,"KRUG / BECKER",,  43.454294, -80.467711,,,0,
2402,2402,"KRUG / MELROSE",,  43.453469, -80.470228,,,0,
2403,2403,"KRUG / EAST",,  43.452687, -80.472558,,,0,
2404,2404,"KRUG / LYDIA",,  43.451932, -80.474752,,,0,
2405,2405,"KRUG / SAMUEL",,  43.451043, -80.477306,,,0,
2407,2407,"KRUG / LANCASTER",,  43.449816, -80.480777,,,0,
2408,2408,"WEBER / SCOTT",,  43.450597, -80.484268,,,0,
2413,2413,"WELLINGTON / AHRENS",,  43.457580, -80.493282,,,0,
2414,2414,"WELLINGTON / MARGARET",,  43.458709, -80.489947,,,0,
2415,2415,"WELLINGTON / ST. LEGER",,  43.459659, -80.487084,,,0,
2416,2416,"WELLINGTON / MAJOR",,  43.460645, -80.484059,,,0,
2417,2417,"LANCASTER / LOUISA",,  43.461985, -80.483590,,,0,
2418,2418,"LANCASTER / HILL",,  43.464373, -80.484102,,,0,
2419,2419,"LANCASTER / GUELPH",,  43.465490, -80.484080,,,0,
2420,2420,"LANCASTER / ARNOLD",,  43.467840, -80.484196,,,0,
2421,2421,"LANCASTER / ASH",,  43.469182, -80.484234,,,0,
2422,2422,"LANCASTER / UNION",,  43.471082, -80.484280,,,0,
2423,2423,"LANCASTER / HAMEL",,  43.475252, -80.484343,,,0,
2424,2424,"LANCASTER / BRIDGE",,  43.481800, -80.482853,,,0,
2425,2425,"BRIDGE / TYSON",,  43.481203, -80.480298,,,0,
2426,2426,"BRIDGE / BLOOMINGDALE",,  43.480456, -80.478289,,,0,
2427,2427,"BRIDGE / SCHWEITZER",,  43.478951, -80.474197,,,0,
2428,2428,"BRIDGE / TAGGE",,  43.478121, -80.471879,,,0,
2429,2429,"STANLEY / SCHUELLER",,  43.477691, -80.466579,,,0,
2430,2430,"STANLEY / TAGGE",,  43.479291, -80.467962,,,0,
2431,2431,"STANLEY / SCHWEITZER",,  43.480962, -80.469035,,,0,
2432,2432,"SCHWEITZER / NELSON",,  43.481567, -80.467324,,,0,
2433,2433,"SCHWEITZER / DANIEL",,  43.482730, -80.463888,,,0,
2434,2434,"DANIEL / BLOOMINGDALE",,  43.485285, -80.465386,,,0,
2435,2435,"BLOOMINGDALE / NELSON",,  43.484158, -80.468859,,,0,
2436,2436,"BLOOMINGDALE / STANLEY",,  43.483313, -80.471129,,,0,
2437,2437,"BLOOMINGDALE / PRINCE",,  43.481847, -80.475297,,,0,
2438,2438,"BLOOMINGDALE / HORNING",,  43.481100, -80.477505,,,0,
2439,2439,"BRIDGE / TYSON",,  43.481111, -80.479755,,,0,
2440,2440,"LANCASTER / HAMEL",,  43.475054, -80.484456,,,0,
2441,2441,"LANCASTER / UNION",,  43.471362, -80.484463,,,0,
2442,2442,"LANCASTER / ASH",,  43.469291, -80.484381,,,0,
2443,2443,"LANCASTER / ARNOLD",,  43.468048, -80.484342,,,0,
2444,2444,"LANCASTER / GUELPH",,  43.465374, -80.484303,,,0,
2445,2445,"LANCASTER / HILL",,  43.464113, -80.484252,,,0,
2446,2446,"LANCASTER / LOUISA",,  43.462139, -80.483799,,,0,
2447,2447,"WELLINGTON / MAJOR",,  43.460700, -80.484158,,,0,
2448,2448,"WELLINGTON / ST. LEGER",,  43.459829, -80.486823,,,0,
2449,2449,"WELLINGTON / MARGARET",,  43.458692, -80.490318,,,0,
2450,2450,"WELLINGTON / AHRENS",,  43.457795, -80.492971,,,0,
2459,2459,"WEBER / YOUNG",,  43.453281, -80.490450,,,0,
2461,2461,"VICTORIA / WEBER",,  43.454652, -80.494552,,,0,
2462,2462,"WEBER / WELLINGTON",,  43.456966, -80.495042,,,0,
2463,2463,"WEBER / WILHELM",,  43.459245, -80.497285,,,0,
2464,2464,"WEBER / GUELPH",,  43.460775, -80.498966,,,0,
2465,2465,"WEBER / RAITAR",,  43.462141, -80.500438,,,0,
2466,2466,"WEBER / ROGER",,  43.463991, -80.502971,,,0,
2467,2467,"UNION / WEBER",,  43.465518, -80.504626,,,0,
2468,2468,"UNION / ELLIS",,  43.466060, -80.503027,,,0,
2469,2469,"UNION / MARGARET",,  43.467083, -80.500163,,,0,
2471,2471,"MARGARET / FAIRFIELD",,  43.465068, -80.496433,,,0,
2472,2472,"MARGARET / GUELPH",,  43.463357, -80.494569,,,0,
2491,2491,"MARGARET / BREITHAUPT CENTRE",,  43.465284, -80.496555,,,0,
2492,2492,"UNION / MARGARET",,  43.467219, -80.500310,,,0,
2493,2493,"UNION / ELLIS",,  43.466329, -80.502765,,,0,
2494,2494,"WEBER / ROGER",,  43.463892, -80.503151,,,0,
2495,2495,"WEBER / RAITAR",,  43.462540, -80.501090,,,0,
2496,2496,"WEBER / GUELPH",,  43.461463, -80.499912,,,0,
2498,2498,"WEBER / WILHELM",,  43.458594, -80.496598,,,0,
2499,2499,"WEBER / WELLINGTON",,  43.457211, -80.495300,,,0,
2500,2500,"WEBER / VICTORIA",,  43.454614, -80.493700,,,0,
2501,2501,"WEBER / YOUNG",,  43.453214, -80.490763,,,0,
2502,2502,"WEBER / ONTARIO",,  43.452610, -80.489356,,,0,
2503,2503,"WEBER / QUEEN",,  43.451927, -80.487619,,,0,
2504,2504,"PATH TO BAUER",,  43.496624, -80.529431,,,0,
2505,2505,"MANULIFE",,  43.491686, -80.528492,,,0,
2507,2507,"KING / BLUE SPRINGS",,  43.487531, -80.527461,,,0,
2508,2508,"KING / WEBER",,  43.483953, -80.526734,,,0,
2509,2509,"KING / COLUMBIA",,  43.482331, -80.526364,,,0,
2511,2511,"COLUMBIA / HOLLY",,  43.480697, -80.529690,,,0,
2512,2512,"COLUMBIA / HAZEL",,  43.480075, -80.531527,,,0,
2513,2513,"COLUMBIA / ALBERT",,  43.478783, -80.535035,,,0,
2514,2514,"COLUMBIA / LESTER",,  43.477964, -80.537440,,,0,
2515,2515,"U.W. -  SOUTH CAMPUS HALL",,  43.468593, -80.540280,,,0,
2516,2516,"U.W. -  ENVIRONMENT 3",,  43.467787, -80.543587,,,0,
2517,2517,"U.W. - NEEDLES HALL",,  43.469580, -80.543957,,,0,
2518,2518,"U.W. -  UNIVERSITY CLUB",,  43.472730, -80.547989,,,0,
2519,2519,"U.W. -  B.C. MATTHEWS HALL",,  43.473929, -80.546237,,,0,
2520,2520,"COLUMBIA / U.W. OPTOMETRY",,  43.475424, -80.544123,,,0,
2521,2521,"COLUMBIA / PHILLIP",,  43.476804, -80.540193,,,0,
2522,2522,"COLUMBIA / LESTER",,  43.477855, -80.537267,,,0,
2523,2523,"COLUMBIA / ALBERT",,  43.478541, -80.535333,,,0,
2524,2524,"COLUMBIA / HAZEL",,  43.480027, -80.531130,,,0,
2525,2525,"COLUMBIA / HOLLY",,  43.480784, -80.529071,,,0,
2526,2526,"COLUMBIA / KING",,  43.481709, -80.526381,,,0,
2527,2527,"REGINA / COLUMBIA",,  43.480919, -80.524767,,,0,
2528,2528,"REGINA / HICKORY",,  43.478702, -80.524302,,,0,
2529,2529,"HICKORY / KING",,  43.478184, -80.525184,,,0,
2530,2530,"U.W. / BIOLOGY",,  43.470719, -80.544470,,,0,
2531,2531,"COLUMBIA / HAGEY",,  43.474512, -80.547288,,,0,
2532,2532,"KING / HICKORY",,  43.478347, -80.525517,,,0,
2533,2533,"KING / UNIVERSITY",,  43.475428, -80.524983,,,0,place_KUN
2535,2535,"KING / CENTRAL",,  43.469804, -80.523742,,,0,
2545,2545,"Charles Terminal",,  43.449492, -80.492768,,,0,place_CST
2546,2546,"Charles Terminal",,  43.449410, -80.492559,,,0,place_CST
2547,2547,"Charles Terminal",,  43.449146, -80.491931,,,0,place_CST
2548,2548,"Charles Terminal",,  43.449028, -80.491685,,,0,place_CST
2549,2549,"Charles Terminal",,  43.449074, -80.491870,,,0,place_CST
2550,2550,"Charles Terminal",,  43.449262, -80.492323,,,0,place_CST
2551,2551,"Charles Terminal",,  43.449169, -80.492080,,,0,place_CST
2552,2552,"Charles Terminal",,  43.449401, -80.492683,,,0,place_CST
2553,2553,"Charles Terminal",,  43.449538, -80.492978,,,0,place_CST
2554,2554,"Charles Terminal",,  43.449246, -80.492190,,,0,place_CST
2555,2555,"Charles Terminal",,  43.449003, -80.492216,,,0,place_CST
2556,2556,"Charles Terminal",,  43.449085, -80.492463,,,0,place_CST
2557,2557,"Charles Terminal",,  43.449385, -80.493128,,,0,place_CST
2558,2558,"Charles Terminal",,  43.449230, -80.492672,,,0,place_CST
2559,2559,"Charles Terminal",,  43.449076, -80.492315,,,0,place_CST
2560,2560,"Charles Terminal",,  43.448975, -80.492068,,,0,place_CST
2561,2561,"KING / BENTON",,  43.449218, -80.487827,,,0,
2562,2562,"KING / QUEEN",,  43.449864, -80.489391,,,0,
2564,2564,"KING / CEDAR",,  43.447425, -80.483591,,,0,
2565,2565,"KING / CAMERON",,  43.446089, -80.480920,,,0,
2567,2567,"KING / STIRLING",,  43.444298, -80.477216,,,0,
2568,2568,"KING / BORDEN",,  43.442842, -80.473916,,,0,
2569,2569,"KING / OTTAWA",,  43.441942, -80.471885,,,0,
2570,2570,"KING / SYDNEY",,  43.440958, -80.469521,,,0,
2571,2571,"KING / ROCKWAY CENTRE",,  43.439755, -80.466381,,,0,
2572,2572,"KING / ROCKWAY GARDENS",,  43.437861, -80.461850,,,0,
2573,2573,"FIRST / ECKERT",,  43.434540, -80.456579,,,0,
2574,2574,"PARKSIDE / NORTHFIELD",,  43.496572, -80.545800,,,0,
2575,2575,"FOURTH / KINGSWAY",,  43.434243, -80.452813,,,0,
2576,2576,"FOURTH / CONNAUGHT",,  43.431361, -80.454606,,,0,
2577,2577,"CONNAUGHT / SIXTH",,  43.430569, -80.452809,,,0,
2578,2578,"CONNAUGHT / FRANKLIN",,  43.429875, -80.450628,,,0,
2580,2580,"CONNAUGHT / WOODHAVEN",,  43.428522, -80.446378,,,0,
2581,2581,"TRAYNOR / CONNAUGHT",,  43.427821, -80.444902,,,0,
2582,2582,"GREENFIELD / TRAYNOR",,  43.425582, -80.445478,,,0,
2583,2583,"GREENFIELD / KINGSWAY",,  43.424518, -80.441436,,,0,
2584,2584,"GREENFIELD / KINGSWAY",,  43.424716, -80.441533,,,0,
2585,2585,"GREENFIELD / TRAYNOR",,  43.425616, -80.445206,,,0,
2586,2586,"TRAYNOR / CONNAUGHT",,  43.427893, -80.444790,,,0,
2587,2587,"CONNAUGHT / WOODHAVEN",,  43.428721, -80.446710,,,0,
2589,2589,"CONNAUGHT / FRANKLIN",,  43.430047, -80.450849,,,0,
2590,2590,"CONNAUGHT / FIFTH",,  43.431052, -80.454015,,,0,
2591,2591,"FOURTH / WILSON",,  43.429153, -80.455898,,,0,
2592,2592,"WILSON / FRANKLIN",,  43.426870, -80.453052,,,0,
2593,2593,"WILSON / FAIRLAWN",,  43.424462, -80.448565,,,0,
2594,2594,"WILSON / TRAYNOR",,  43.423535, -80.446806,,,0,
2595,2595,"WILSON / BALFOUR",,  43.422734, -80.445084,,,0,
2596,2596,"TRAYNOR / WILSON",,  43.423906, -80.447112,,,0,
2597,2597,"WILSON / WOODHAVEN",,  43.425006, -80.449326,,,0,
2599,2599,"WILSON / FRANKLIN",,  43.426806, -80.452793,,,0,
2600,2600,"WILSON / FIFTH",,  43.427996, -80.455006,,,0,
2601,2601,"FOURTH / WILSON",,  43.429753, -80.455386,,,0,
2602,2602,"FOURTH / CONNAUGHT",,  43.431038, -80.454683,,,0,
2603,2603,"FOURTH / KINGSWAY",,  43.434422, -80.452613,,,0,
2605,2605,"FIRST / ECKERT",,  43.434353, -80.456889,,,0,
2606,2606,"ECKERT / DIXON",,  43.434625, -80.459210,,,0,
2609,2609,"MONTGOMERY / WEBER",,  43.438051, -80.458339,,,0,
2610,2610,"WEBER / WILFRED",,  43.436390, -80.453621,,,0,
2611,2611,"WEBER / DELLROY",,  43.435577, -80.451145,,,0,
2612,2612,"WEBER / FRANKLIN",,  43.434307, -80.447400,,,0,
2613,2613,"WEBER / ARLINGTON",,  43.433346, -80.444073,,,0,
2614,2614,"WEBER / FERGUS",,  43.433315, -80.441392,,,0,
2619,2619,"THALER / KINZIE",,  43.434084, -80.431290,,,0,
2621,2621,"KING / FAIRWAY",,  43.428907, -80.433217,,,0,
2622,2622,"KING / MORGAN",,  43.429511, -80.435175,,,0,
2623,2623,"WEBER / HWY 8 RAMP",,  43.430611, -80.437216,,,0,
2624,2624,"FRANKLIN / PROSPECT",,  43.436070, -80.446878,,,0,
2625,2625,"FRANKLIN / SHUH",,  43.437874, -80.445798,,,0,
2626,2626,"FRANKLIN / TRAFALGAR",,  43.440146, -80.446383,,,0,
2627,2627,"FRANKLIN / KENNETH",,  43.441229, -80.446855,,,0,
2628,2628,"FRANKLIN / DALEWOOD",,  43.443232, -80.447714,,,0,
2629,2629,"FRANKLIN / BRADLEY",,  43.444658, -80.448344,,,0,
2630,2630,"FRANKLIN / DREGER",,  43.446482, -80.449477,,,0,
2631,2631,"FRANKLIN / OTTAWA",,  43.447855, -80.450379,,,0,
2632,2632,"OTTAWA / DREGER",,  43.448210, -80.452971,,,0,
2633,2633,"OTTAWA / NOTTINGHAM",,  43.447688, -80.458723,,,0,
2634,2634,"OTTAWA / MCKENZIE",,  43.444945, -80.465235,,,0,
2635,2635,"OTTAWA / WEBER",,  43.444332, -80.467008,,,0,
2636,2636,"WEBER / BORDEN",,  43.445601, -80.470704,,,0,
2649,2649,"WEBER / FAIRVIEW",,  43.446823, -80.475909,,,0,
2650,2650,"WEBER / PANDORA",,  43.447259, -80.476881,,,0,
2651,2651,"WEBER / CAMERON",,  43.447951, -80.478433,,,0,
2652,2652,"WEBER / MADISON",,  43.448660, -80.480008,,,0,
2653,2653,"WEBER / CEDAR",,  43.449288, -80.481400,,,0,
2654,2654,"MARGARET / QUEEN",,  43.454683, -80.485741,,,0,
2657,2657,"MARGARET / WELLINGTON",,  43.458991, -80.490600,,,0,
2658,2658,"MARGARET / WILHELM",,  43.460746, -80.492575,,,0,
2659,2659,"MARGARET / GUELPH",,  43.463003, -80.493965,,,0,
2660,2660,"UNION / WEBER",,  43.465457, -80.505220,,,0,
2661,2661,"WEBER / BRISTOL",,  43.466429, -80.507116,,,0,
2662,2662,"WEBER / CORNWALL",,  43.467191, -80.508395,,,0,
2663,2663,"WEBER / ALLEN",,  43.467880, -80.509539,,,0,
2664,2664,"WEBER / ROYAL",,  43.469185, -80.511445,,,0,
2665,2665,"WEBER / LINCOLN",,  43.471093, -80.513507,,,0,
2666,2666,"WEBER / MACKAY",,  43.472252, -80.514858,,,0,
2667,2667,"WEBER / MARSHALL",,  43.474980, -80.517111,,,0,
2668,2668,"WEBER / NOECKER",,  43.473481, -80.515911,,,0,
2670,2670,"UNIVERSITY / WEBER",,  43.477823, -80.520723,,,0,
2671,2671,"UNIVERSITY / REGINA",,  43.476843, -80.523278,,,0,
2673,2673,"UNIVERSITY / HEMLOCK",,  43.474280, -80.530581,,,0,
2674,2674,"UNIVERSITY / SUNVIEW",,  43.473264, -80.533148,,,0,
2675,2675,"UNIVERSITY / PHILLIP",,  43.472251, -80.536069,,,0,
2676,2676,"UNIVERSITY / SEAGRAM",,  43.468418, -80.539416,,,0,
2677,2677,"UNIVERSITY / RING ROAD EXIT",,  43.466181, -80.540571,,,0,
2678,2678,"WESTMOUNT / UNIVERSITY",,  43.463858, -80.540625,,,0,
2679,2679,"WESTMOUNT / WESTCOURT",,  43.462177, -80.539031,,,0,
2680,2680,"WESTMOUNT / ERB",,  43.459034, -80.536842,,,0,
2681,2681,"WESTMOUNT / LOURDES",,  43.457606, -80.535333,,,0,
2682,2682,"WESTMOUNT / DIETZ",,  43.456918, -80.532248,,,0,
2683,2683,"WESTMOUNT / WILLIAM",,  43.455662, -80.529069,,,0,
2685,2685,"WESTMOUNT / JOHN",,  43.454342, -80.527670,,,0,
2686,2686,"UNION / WESTMOUNT",,  43.452178, -80.524943,,,0,
2687,2687,"UNION / DUNBAR",,  43.453222, -80.522524,,,0,
2688,2688,"UNION / EARL",,  43.454475, -80.520784,,,0,
2689,2689,"BELMONT / UNION",,  43.454900, -80.519050,,,0,
2690,2690,"MARGARET / VICTORIA",,  43.456024, -80.488723,,,0,
2692,2692,"545 BELMONT AVE",,  43.450409, -80.516159,,,0,
2693,2693,"551 BELMONT AVE",,  43.449401, -80.515485,,,0,
2694,2694,"BELMONT / GAGE",,  43.447595, -80.514288,,,0,
2695,2695,"BELMONT / KARN",,  43.445032, -80.512974,,,0,
2696,2696,"BELMONT / VICTORIA",,  43.443227, -80.512012,,,0,
2697,2697,"BELMONT / EDGEWOOD",,  43.442205, -80.510760,,,0,
2698,2698,"BELMONT / METZLOFF",,  43.441146, -80.509508,,,0,
2699,2699,"BELMONT / HIGHLAND",,  43.440141, -80.508367,,,0,
2701,2701,"HIGHLAND / PATRICIA",,  43.440498, -80.505522,,,0,
2702,2702,"HIGHLAND / WEST",,  43.441168, -80.502106,,,0,
2703,2703,"HIGHLAND / GARDEN",,  43.441120, -80.499511,,,0,
2705,2705,"QUEEN / SCHNEIDER",,  43.444565, -80.494453,,,0,
2706,2706,"QUEEN / COURTLAND",,  43.445640, -80.493344,,,0,
2707,2707,"QUEEN / COURTLAND",,  43.446698, -80.492273,,,0,
2708,2708,"Charles Terminal",,  43.448903, -80.491995,,,0,place_CST
2709,2709,"Charles Terminal",,  43.449240, -80.492820,,,0,place_CST
2710,2710,"Charles Terminal",,  43.449339, -80.492918,,,0,place_CST
2711,2711,"Charles Terminal",,  43.448857, -80.491822,,,0,place_CST
2713,2713,"BENTON / CHURCH",,  43.447469, -80.489411,,,0,
2714,2714,"BENTON / COURTLAND",,  43.445954, -80.491031,,,0,
2715,2715,"COURTLAND / PETER",,  43.444101, -80.489415,,,0,
2716,2716,"COURTLAND / MADISON",,  43.442304, -80.486304,,,0,
2718,2718,"COURTLAND / PALMER",,  43.439864, -80.482147,,,0,
2719,2719,"COURTLAND / KENT",,  43.438802, -80.480266,,,0,
2721,2721,"COURTLAND / OTTAWA",,  43.436941, -80.477143,,,0,
2722,2722,"COURTLAND / SYDNEY",,  43.435816, -80.475287,,,0,
2724,2724,"COURTLAND / CARWOOD",,  43.433075, -80.472407,,,0,
2725,2725,"COURTLAND / OVERLAND",,  43.428842, -80.468280,,,0,
2726,2726,"WALTON / KIPLING",,  43.427741, -80.465955,,,0,
2727,2727,"WALTON / VANIER",,  43.428355, -80.464245,,,0,
2728,2728,"VANIER / ERIE",,  43.427294, -80.462808,,,0,
2729,2729,"VANIER / KIPLING",,  43.424923, -80.460223,,,0,
2730,2730,"VANIER / SHELLEY",,  43.423792, -80.459010,,,0,
2731,2731,"VANIER / SIEBERT",,  43.421692, -80.456731,,,0,
2732,2732,"TRAYNOR / VANIER",,  43.420566, -80.454863,,,0,
2733,2733,"TRAYNOR / BELWOOD",,  43.421299, -80.451879,,,0,
2734,2734,"TRAYNOR / BALFOUR",,  43.422134, -80.449352,,,0,
2735,2735,"TRAYNOR / WILSON",,  43.423591, -80.447127,,,0,
2736,2736,"TRAYNOR / BALFOUR",,  43.422206, -80.449314,,,0,
2737,2737,"TRAYNOR / BELWOOD",,  43.421319, -80.452089,,,0,
2738,2738,"TRAYNOR / VANIER",,  43.420683, -80.454862,,,0,
2739,2739,"VANIER / SIEBERT",,  43.421836, -80.456766,,,0,
2740,2740,"VANIER / VANIER PARK",,  43.423447, -80.458519,,,0,
2741,2741,"VANIER / SHELLEY",,  43.424832, -80.459976,,,0,
2742,2742,"VANIER / ERIE",,  43.427402, -80.462770,,,0,
2743,2743,"WALTON / VANIER",,  43.428356, -80.464529,,,0,
2744,2744,"WALTON / KIPLING",,  43.427822, -80.466004,,,0,
2745,2745,"COURTLAND / CARWOOD",,  43.432856, -80.471754,,,0,
2746,2746,"COURTLAND / SYDNEY",,  43.435761, -80.475040,,,0,
2747,2747,"COURTLAND / OTTAWA",,  43.437213, -80.477363,,,0,
2748,2748,"COURTLAND / BORDEN",,  43.438338, -80.479281,,,0,
2749,2749,"COURTLAND / PALMER",,  43.440017, -80.482270,,,0,
2750,2750,"COURTLAND / STIRLING",,  43.441396, -80.484519,,,0,
2751,2751,"COURTLAND / MADISON",,  43.442621, -80.486499,,,0,
2752,2752,"COURTLAND / PETER",,  43.444118, -80.489192,,,0,
2753,2753,"COURTLAND / BENTON",,  43.445235, -80.491148,,,0,
2754,2754,"QUEEN / COURTLAND",,  43.445875, -80.493355,,,0,
2755,2755,"QUEEN / HOMEWOOD",,  43.442468, -80.496757,,,0,
2756,2756,"HIGHLAND / QUEEN",,  43.441145, -80.498980,,,0,
2757,2757,"HIGHLAND / WEST",,  43.441312, -80.502055,,,0,
2758,2758,"HIGHLAND / PATRICIA",,  43.440704, -80.505273,,,0,
2759,2759,"BELMONT / HIGHLAND",,  43.440023, -80.507985,,,0,
2760,2760,"BELMONT / METZLOFF",,  43.441027, -80.509138,,,0,
2761,2761,"BELMONT / JACK",,  43.442294, -80.510661,,,0,
2762,2762,"BELMONT / VICTORIA",,  43.443479, -80.511961,,,0,
2763,2763,"BELMONT / KARN",,  43.445176, -80.512887,,,0,
2764,2764,"BELMONT / GAGE",,  43.447730, -80.514151,,,0,
2765,2765,"564 BELMONT AVE",,  43.450159, -80.515751,,,0,
2766,2766,"BELMONT / GLASGOW",,  43.451802, -80.516838,,,0,
2767,2767,"BELMONT / CLAREMONT",,  43.453590, -80.517948,,,0,
2768,2768,"UNION / SEVERN",,  43.455047, -80.519704,,,0,
2769,2769,"UNION / DUNBAR",,  43.453735, -80.522508,,,0,
2772,2772,"WESTMOUNT / JOHN",,  43.454440, -80.527607,,,0,
2773,2773,"WESTMOUNT / WILLIAM",,  43.455887, -80.529079,,,0,
2774,2774,"WESTMOUNT / ALEXANDRA",,  43.456831, -80.530914,,,0,
2775,2775,"WESTMOUNT / LOURDES",,  43.457414, -80.534667,,,0,
2777,2777,"WESTMOUNT / WESTMOUNT PL",,  43.461165, -80.538334,,,0,
2778,2778,"FATHER DAVID BAUER",,  43.462446, -80.538918,,,0,
2779,2779,"WESTMOUNT / UNIVERSITY",,  43.464038, -80.540587,,,0,
2780,2780,"UNIVERSITY / RING ROAD",,  43.466126, -80.540287,,,0,
2783,2783,"UNIVERSITY / HEMLOCK",,  43.474126, -80.530310,,,0,
2785,2785,"UNIVERSITY / KING",,  43.475826, -80.525450,,,0,place_KUN
2786,2786,"UNIVERSITY / REGINA",,  43.476663, -80.523280,,,0,
2787,2787,"UNIVERSITY / WEBER",,  43.477642, -80.520527,,,0,
2788,2788,"CONESTOGA COLLEGE",,  43.479299, -80.516198,,,0,
2793,2793,"LINCOLN / MAYFIELD",,  43.479191, -80.507766,,,0,
2794,2794,"LINCOLN / BLUEVALE",,  43.482010, -80.505814,,,0,
2795,2795,"LINCOLN / UNIVERSITY",,  43.483323, -80.507621,,,0,
2800,2800,"LEE / DUNVEGAN",,  43.493511, -80.504434,,,0,
2801,2801,"LEE / DANSBURY",,  43.494485, -80.504686,,,0,
2803,2803,"LEXINGTON / DUNVEGAN",,  43.494563, -80.510362,,,0,
2804,2804,"LEXINGTON / DAVENPORT",,  43.493087, -80.512613,,,0,
2805,2805,"DAVENPORT / FOXHUNT",,  43.494325, -80.513543,,,0,
2806,2806,"PATH TO ANNDALE",,  43.496865, -80.515897,,,0,
2807,2807,"DAVENPORT / KIDSABILITY CENTRE",,  43.497720, -80.518030,,,0,
2808,2808,"DAVENPORT / KINGSCOURT",,  43.497121, -80.521140,,,0,
2809,2809,"KRAUS / CONESTOGO",,  43.500217, -80.529489,,,0,
2810,2810,"KRAUS / NORTHFIELD",,  43.501771, -80.530640,,,0,
2811,2811,"DAVENPORT / CONESTOGA MALL",,  43.499146, -80.525131,,,0,
2812,2812,"DAVENPORT / KINGSCOURT",,  43.497337, -80.523265,,,0,
2813,2813,"DAVENPORT / KINGSCOURT",,  43.497047, -80.520608,,,0,
2814,2814,"DAVENPORT / KIDSABILITY CENTRE",,  43.497479, -80.518478,,,0,
2815,2815,"PATH TO REDFOX",,  43.496504, -80.515777,,,0,
2817,2817,"LEXINGTON / DAVENPORT",,  43.493005, -80.512391,,,0,
2819,2819,"LEXINGTON / LEE",,  43.496575, -80.507192,,,0,
2820,2820,"HIGHLAND / SPADINA",,  43.438686, -80.493070,,,0,
2821,2821,"LEE / DUNVEGAN",,  43.493241, -80.504449,,,0,
2822,2822,"WESTHEIGHTS / AUTUMN HILL",,  43.420425, -80.529522,,,0,
2824,2824,"WESTHEIGHTS / PATH TO TRAILVIEW PARK",,  43.424542, -80.530073,,,0,
2825,2825,"GREENBROOK / STONYBROOK",,  43.425204, -80.512000,,,0,
2826,2826,"LINCOLN / BLUEVALE",,  43.482590, -80.506762,,,0,
2827,2827,"LINCOLN / MAYFIELD",,  43.479748, -80.507527,,,0,
2828,2828,"GREENBROOK / GRAYSTONE",,  43.427957, -80.507822,,,0,
2829,2829,"HIGHLAND / RUBY",,  43.440145, -80.495959,,,0,
2830,2830,"HIGHLAND / RUBY",,  43.440287, -80.496021,,,0,
2832,2832,"CONESTOGA COLLEGE",,  43.479211, -80.516867,,,0,
2833,2833,"WEBER / MARSHALL",,  43.475036, -80.517444,,,0,
2834,2834,"WEBER / NOECKER",,  43.473518, -80.516195,,,0,
2835,2835,"WEBER / LINCOLN",,  43.471140, -80.513902,,,0,
2836,2836,"WEBER / ALLEN",,  43.467673, -80.509578,,,0,
2837,2837,"WEBER / RODNEY",,  43.465886, -80.506576,,,0,
2838,2838,"MARGARET / WILHELM",,  43.460711, -80.492798,,,0,
2839,2839,"MARGARET / WELLINGTON",,  43.458648, -80.490553,,,0,
2840,2840,"MARGARET / VICTORIA",,  43.455957, -80.488833,,,0,
2841,2841,"MARGARET / QUEEN",,  43.454539, -80.485669,,,0,
2842,2842,"WEBER / FREDERICK",,  43.451390, -80.486338,,,0,
2843,2843,"WEBER / CEDAR",,  43.449071, -80.481290,,,0,
2844,2844,"WEBER / MADISON",,  43.448516, -80.480059,,,0,
2845,2845,"WEBER / FAIRVIEW",,  43.446960, -80.476526,,,0,
2846,2846,"WEBER / STIRLING",,  43.446406, -80.475319,,,0,
2847,2847,"WEBER / BORDEN",,  43.445530, -80.470940,,,0,
2848,2848,"WEBER / ONWARD",,  43.445129, -80.469880,,,0,
2849,2849,"OTTAWA / MCKENZIE",,  43.444730, -80.465336,,,0,
2850,2850,"OTTAWA / HWY 7 RAMP",,  43.445441, -80.463414,,,0,
2851,2851,"OTTAWA / NOTTINGHAM",,  43.447695, -80.458228,,,0,
2852,2852,"OTTAWA / DREGER",,  43.448122, -80.453355,,,0,
2853,2853,"FRANKLIN / OTTAWA",,  43.448208, -80.450697,,,0,
2854,2854,"FRANKLIN / PENROSE",,  43.446338, -80.449540,,,0,
2855,2855,"FRANKLIN / BRADLEY",,  43.444587, -80.448481,,,0,
2856,2856,"FRANKLIN / DALEWOOD",,  43.443359, -80.447948,,,0,
2857,2857,"FRANKLIN / KENNETH",,  43.441753, -80.447246,,,0,
2858,2858,"FRANKLIN / TRAFALGAR",,  43.439750, -80.446375,,,0,
2859,2859,"FRANKLIN / SHUH",,  43.437866, -80.445959,,,0,
2860,2860,"FRANKLIN / PROSPECT",,  43.435891, -80.447077,,,0,
2861,2861,"WEBER / KINZIE",,  43.431916, -80.438921,,,0,
2862,2862,"KING / KINGSBURY",,  43.429258, -80.434881,,,0,
2863,2863,"G.R.T. STRASBURG GARAGE",,  43.425349, -80.490289,,,0,
2864,2864,"CHANDLER / BONFIELD",,  43.424732, -80.495285,,,0,
2865,2865,"ELMSDALE / CHANDLER",,  43.423847, -80.496689,,,0,
2866,2866,"ELMSDALE / OTTAWA",,  43.422008, -80.494221,,,0,
2867,2867,"OTTAWA / HOWLAND",,  43.421220, -80.497254,,,0,
2868,2868,"PATH TO CHANDLER",,  43.420667, -80.500582,,,0,
2869,2869,"OTTAWA / WESTMOUNT",,  43.420352, -80.502585,,,0,
2870,2870,"OTTAWA / HOWE",,  43.419649, -80.506594,,,0,
2871,2871,"WILLIAMSBURG / OTTAWA",,  43.418556, -80.507937,,,0,
2872,2872,"WILLIAMSBURG / PINEDALE",,  43.416240, -80.505324,,,0,
2873,2873,"WILLIAMSBURG / DINISON",,  43.414647, -80.503571,,,0,
2874,2874,"WILLIAMSBURG / DINISON",,  43.413263, -80.502038,,,0,
2875,2875,"DUNSMERE / BOSWORTH",,  43.414253, -80.499881,,,0,
2876,2876,"DUNSMERE / RADCLIFFE",,  43.414669, -80.498173,,,0,
2877,2877,"DUNSMERE / COLEBROOK",,  43.415866, -80.496174,,,0,
2878,2878,"DUNSMERE / LAURENTIAN",,  43.416306, -80.493663,,,0,
2879,2879,"LAURENTIAN / BRIAR KNOLL",,  43.414860, -80.492477,,,0,
2880,2880,"LAURENTIAN / BLOCK LINE",,  43.412777, -80.491963,,,0,
2881,2881,"BLOCK LINE / LAURENTIAN",,  43.412490, -80.492176,,,0,
2882,2882,"BLOCK LINE / MCLENNAN PARK",,  43.413436, -80.486301,,,0,
2883,2883,"BLOCK LINE / RITTENHOUSE",,  43.413793, -80.483543,,,0,
2884,2884,"STRASBURG / BLOCK LINE",,  43.415531, -80.479563,,,0,
2885,2885,"BLOCK LINE / STRASBURG",,  43.415733, -80.480340,,,0,
2886,2886,"BLOCK LINE / RITTENHOUSE",,  43.414141, -80.482910,,,0,
2887,2887,"BLOCK LINE / MCLENNAN PARK",,  43.413537, -80.486757,,,0,
2888,2888,"BLOCK LINE / LAURENTIAN",,  43.412766, -80.491494,,,0,
2889,2889,"LAURENTIAN / BRIAR KNOLL",,  43.415148, -80.492462,,,0,
2890,2890,"DUNSMERE / LAURENTIAN",,  43.416325, -80.493984,,,0,
2891,2891,"DUNSMERE / COLEBROOK",,  43.415912, -80.496359,,,0,
2892,2892,"DUNSMERE / RADCLIFFE",,  43.414920, -80.498023,,,0,
2893,2893,"DUNSMERE / WESTMOUNT",,  43.414291, -80.500251,,,0,
2894,2894,"WILLIAMSBURG / DINISON",,  43.413215, -80.501495,,,0,
2895,2895,"WILLIAMSBURG / LITTLEFIELD",,  43.414827, -80.503508,,,0,
2896,2896,"WILLIAMSBURG / PINEDALE",,  43.416537, -80.505384,,,0,
2897,2897,"Williamsburg / Ottawa",,  43.418527, -80.507591,,,0,
2898,2898,"OTTAWA / PINEDALE",,  43.419848, -80.504677,,,0,
2899,2899,"OTTAWA / WESTMOUNT",,  43.420215, -80.502154,,,0,
2900,2900,"PATH TO CHANDLER",,  43.420592, -80.499940,,,0,
2901,2901,"OTTAWA / HOWLAND",,  43.420969, -80.497577,,,0,
2902,2902,"ELMSDALE / OTTAWA",,  43.422179, -80.494170,,,0,
2903,2903,"ELMSDALE / CHANDLER",,  43.424036, -80.496675,,,0,
2904,2904,"CHANDLER / BONFIELD",,  43.424641, -80.495200,,,0,
2905,2905,"G.R.T. STRASBURG GARAGE",,  43.425005, -80.490170,,,0,
2906,2906,"OTTAWA / STRASBURG",,  43.422929, -80.486739,,,0,
2907,2907,"OTTAWA / ALPINE",,  43.425167, -80.483743,,,0,
2908,2908,"OTTAWA / IMPERIAL",,  43.429289, -80.481336,,,0,
2909,2909,"479 OTTAWA ST",,  43.430511, -80.480732,,,0,
2910,2910,"OTTAWA / HOFFMAN",,  43.431487, -80.479562,,,0,
2911,2911,"MILL / OTTAWA",,  43.434321, -80.479069,,,0,
2912,2912,"MILL / BORDEN",,  43.435212, -80.483052,,,0,
2913,2913,"MILL / HEIMAN",,  43.435836, -80.485654,,,0,
2914,2914,"MILL / STIRLING",,  43.437067, -80.486990,,,0,
2929,2929,"STIRLING / MILL",,  43.438399, -80.486905,,,0,
2930,2930,"MILL / HEIMAN",,  43.436100, -80.486097,,,0,
2931,2931,"MILL / BORDEN",,  43.435068, -80.482905,,,0,
2932,2932,"409 MILL ST",,  43.434604, -80.479944,,,0,
2933,2933,"MILL / OTTAWA",,  43.434168, -80.479021,,,0,
2934,2934,"OTTAWA / HOFFMAN",,  43.431964, -80.479534,,,0,
2935,2935,"OTTAWA / KEHL",,  43.429704, -80.481592,,,0,
2936,2936,"OTTAWA / HOMER WATSON",,  43.427096, -80.482232,,,0,
2937,2937,"OTTAWA / ALPINE",,  43.425096, -80.484077,,,0,
2938,2938,"STRASBURG / OTTAWA",,  43.422436, -80.487324,,,0,
2939,2939,"STRASBURG / BARWOOD",,  43.420889, -80.485632,,,0,
2940,2940,"STRASBURG / SELKIRK",,  43.418717, -80.483180,,,0,
2941,2941,"STRASBURG / BLACKHORNE",,  43.416681, -80.480912,,,0,
2942,2942,"RITTENHOUSE / BROOKFIELD",,  43.412764, -80.482971,,,0,
2943,2943,"RITTENHOUSE / TUERR",,  43.410845, -80.482716,,,0,
2944,2944,"RITTENHOUSE / MCCABE",,  43.409575, -80.484616,,,0,
2945,2945,"ERINBROOK / GOUNDRY",,  43.408290, -80.485195,,,0,
2946,2946,"ERINBROOK / PIPERS GREEN",,  43.406164, -80.487054,,,0,
2947,2947,"ERINBROOK / HEDGESTONE",,  43.405103, -80.489434,,,0,
2948,2948,"ERINBROOK / TARA",,  43.404425, -80.492749,,,0,
2949,2949,"ERINBROOK / ROCKWOOD",,  43.404642, -80.495156,,,0,
2950,2950,"ERINBROOK / RIDGEWAY",,  43.406871, -80.496088,,,0,
2951,2951,"TILLSLEY / ERINBROOK",,  43.409109, -80.497255,,,0,
2952,2952,"TILLSLEY / WESTMOUNT",,  43.408998, -80.498689,,,0,
2953,2953,"MAX BECKER / FISCHER-HALLMAN",,  43.405711, -80.500519,,,0,
2954,2954,"MAX BECKER / COMMONWEALTH",,  43.404254, -80.503162,,,0,
2955,2955,"MAX BECKER / COPPER LEAF",,  43.403597, -80.507440,,,0,
2956,2956,"ACTIVA / DONNENWERTH",,  43.403076, -80.509803,,,0,
2957,2957,"ACTIVA / PERIWINKLE",,  43.402195, -80.512107,,,0,
2958,2958,"ACTIVA / HENHOEFFER",,  43.402821, -80.515264,,,0,
2959,2959,"ACTIVA / SNOWDROP",,  43.402877, -80.517943,,,0,
2960,2960,"DAVID BERGEY / PEACH BLOSSOM",,  43.405706, -80.518402,,,0,
2961,2961,"DAVID BERGEY / PEACH BLOSSOM",,  43.406924, -80.518825,,,0,
2962,2962,"DAVID BERGEY / OTTAWA",,  43.410377, -80.521997,,,0,
2963,2963,"PATH TO WATERCRESS",,  43.411655, -80.519837,,,0,
2964,2964,"OTTAWA / WILDERNESS",,  43.412633, -80.516939,,,0,
2965,2965,"WILDERNESS / PINE MARTIN",,  43.410613, -80.513905,,,0,
2966,2966,"WILDERNESS / ACTIVA",,  43.410256, -80.510523,,,0,
2967,2967,"ACTIVA / BUSH CLOVER",,  43.411198, -80.509651,,,0,
2968,2968,"ACTIVA / GREY FOX",,  43.413309, -80.508634,,,0,
2969,2969,"FISCHER-HALLMAN / OTTAWA",,  43.416570, -80.510880,,,0,
2970,2970,"FISCHER-HALLMAN / GREENBROOK",,  43.421383, -80.516339,,,0,
2971,2971,"FISCHER-HALLMAN / MCGARRY",,  43.423420, -80.518818,,,0,
2972,2972,"FOREST HEIGHTS C.I.",,  43.425789, -80.521245,,,0,
2974,2974,"HIGHLAND HILLS MALL TERMINAL",,  43.430326, -80.525324,,,0,place_HHM
2981,2981,"FISCHER-HALLMAN / QUEENS",,  43.428211, -80.523413,,,0,
2982,2982,"FOREST HEIGHTS C.I.",,  43.426160, -80.521786,,,0,
2983,2983,"FISCHER-HALLMAN / MCGARRY",,  43.423557, -80.519299,,,0,
2984,2984,"FISCHER-HALLMAN / GREENBROOK",,  43.421339, -80.516512,,,0,
2985,2985,"FISCHER-HALLMAN / OTTAWA",,  43.416372, -80.511005,,,0,
2986,2986,"FISCHER-HALLMAN / QUEENS",,  43.428585, -80.523337,,,0,
2987,2987,"ACTIVA / WILDERNESS",,  43.410452, -80.510040,,,0,
2988,2988,"WILDERNESS / MOUNTAIN MINT",,  43.410730, -80.513879,,,0,
2989,2989,"WILDERNESS / GREY FOX",,  43.411809, -80.515847,,,0,
2990,2990,"OTTAWA / INTERNATIONAL",,  43.412574, -80.517780,,,0,
2991,2991,"PATH TO WAKE ROBIN",,  43.411960, -80.519440,,,0,
2992,2992,"DAVID BERGEY / OTTAWA",,  43.410450, -80.522243,,,0,
2993,2993,"DAVID BERGEY / PEACH BLOSSOM",,  43.406780, -80.518876,,,0,
2994,2994,"DAVID BERGEY / ACTIVA",,  43.405391, -80.518454,,,0,
2995,2995,"ACTIVA / ISAIAH",,  43.403372, -80.520137,,,0,
2996,2996,"ACTIVA / SNOWDROP",,  43.402742, -80.518068,,,0,
2997,2997,"ACTIVA / REISTVIEW",,  43.402475, -80.514451,,,0,
2998,2998,"ACTIVA / PERIWINKLE",,  43.402051, -80.512244,,,0,
2999,2999,"ACTIVA / SWEET WILLIAM",,  43.402565, -80.510264,,,0,
3000,3000,"MAX BECKER / COPPER LEAF",,  43.403375, -80.508109,,,0,
3001,3001,"MAX BECKER / COMMONWEALTH",,  43.404139, -80.503496,,,0,
3002,3002,"MAX BECKER / HELENA FEASBY",,  43.404806, -80.501688,,,0,
3004,3004,"BLOCK LINE / WESTMOUNT",,  43.411260, -80.499078,,,0,
3005,3005,"TILLSLEY / WESTMOUNT",,  43.408986, -80.498047,,,0,
3006,3006,"TILLSLEY / ERINBROOK",,  43.408972, -80.496812,,,0,
3007,3007,"ERINBROOK / RIDGEWAY",,  43.407213, -80.496197,,,0,
3008,3008,"ERINBROOK / ROCKWOOD",,  43.404389, -80.494800,,,0,
3009,3009,"ERINBROOK / TAMVALE",,  43.404301, -80.493183,,,0,
3011,3011,"ERINBROOK / RUSHBROOK",,  43.404646, -80.489907,,,0,
3012,3012,"ERINBROOK / THISTLEDOWN",,  43.406162, -80.486609,,,0,
3013,3013,"ERINBROOK / GOUNDRY",,  43.408397, -80.485083,,,0,
3014,3014,"ERINBROOK / RITTENHOUSE",,  43.409317, -80.485224,,,0,
3015,3015,"RITTENHOUSE / TUERR",,  43.410574, -80.482570,,,0,
3016,3016,"RITTENHOUSE / BLOCK LINE",,  43.413747, -80.483198,,,0,
3017,3017,"STRASBURG / BLOCK LINE",,  43.416209, -80.480113,,,0,
3018,3018,"STRASBURG / BLACKHORNE",,  43.417105, -80.481156,,,0,
3019,3019,"STRASBURG / SELKIRK",,  43.418670, -80.482859,,,0,
3020,3020,"STRASBURG / KINGSWOOD",,  43.420996, -80.485434,,,0,
3021,3021,"KINGSWOOD / LUCERNE",,  43.421424, -80.484565,,,0,
3022,3022,"KINGSWOOD / FLINT",,  43.423158, -80.481660,,,0,
3023,3023,"KINGSWOOD / APPALACHIAN",,  43.422828, -80.480279,,,0,
3024,3024,"KINGSWOOD / ALPINE",,  43.422145, -80.478617,,,0,
3025,3025,"KINGSWOOD / GRACEFIELD",,  43.420841, -80.475120,,,0,
3026,3026,"KINGSWOOD / SELKIRK",,  43.419183, -80.474801,,,0,
3027,3027,"KINGSWOOD / BLOCK LINE",,  43.418150, -80.473340,,,0,
3028,3028,"COUNTRY HILL / BLOCK LINE",,  43.416701, -80.475465,,,0,
3029,3029,"COUNTRY HILL / CHERRY HILL",,  43.415788, -80.474793,,,0,
3030,3030,"COUNTRY HILL / OLD COUNTRY",,  43.413887, -80.472611,,,0,
3031,3031,"COUNTRY HILL / COACH HILL",,  43.414139, -80.470669,,,0,
3032,3032,"COUNTRY HILL / FOUR SEASONS",,  43.413485, -80.467390,,,0,
3033,3033,"COUNTRY HILL / MARTINGLEN",,  43.410971, -80.466979,,,0,
3034,3034,"CENTURY HILL / DEVONGLEN",,  43.411219, -80.471856,,,0,
3035,3035,"OLD COUNTRY / CENTURY HILL",,  43.411592, -80.474669,,,0,
3036,3036,"OLD COUNTRY / STRASBURG",,  43.411355, -80.476067,,,0,
3037,3037,"OLD COUNTRY / STRASBURG",,  43.411273, -80.475894,,,0,
3038,3038,"OLD COUNTRY / CENTURY HILL",,  43.411705, -80.473791,,,0,
3039,3039,"PATH TO SANDSPRINGS",,  43.411107, -80.471165,,,0,
3040,3040,"COUNTRY HILL / MARTINGLEN",,  43.410952, -80.466794,,,0,
3041,3041,"COUNTRY HILL / FOUR SEASONS",,  43.414228, -80.468334,,,0,
3042,3042,"COUNTRY HILL / COACH HILL",,  43.414273, -80.470434,,,0,
3043,3043,"COUNTRY HILL / CEDARHILL",,  43.415471, -80.474438,,,0,
3044,3044,"COUNTRY HILL / BLOCK LINE",,  43.417016, -80.475487,,,0,
3045,3045,"KINGSWOOD / BLOCK LINE",,  43.418384, -80.473399,,,0,
3046,3046,"KINGSWOOD / SELKIRK",,  43.419218, -80.474677,,,0,
3047,3047,"KINGSWOOD / GRACEFIELD",,  43.421320, -80.475524,,,0,
3048,3048,"KINGSWOOD / ALPINE",,  43.421990, -80.478124,,,0,
3049,3049,"KINGSWOOD / FLINT",,  43.423240, -80.481783,,,0,
3050,3050,"KINGSWOOD / ROBERTS",,  43.422471, -80.483099,,,0,
3051,3051,"KINGSWOOD / STRASBURG",,  43.421266, -80.485444,,,0,
3052,3052,"ALPINE / OTTAWA",,  43.424975, -80.483090,,,0,
3053,3053,"ALPINE / OTTAWA",,  43.425318, -80.483272,,,0,
3054,3054,"HOFFMAN / OTTAWA",,  43.431903, -80.480004,,,0,
3055,3055,"HOFFMAN / MEINZINGER",,  43.432077, -80.482671,,,0,
3056,3056,"HOFFMAN / KEHL",,  43.431411, -80.484703,,,0,
3057,3057,"HOFFMAN / HIGHLAND",,  43.430557, -80.487082,,,0,
3058,3058,"HIGHLAND / HEIMAN",,  43.432933, -80.488817,,,0,
3059,3059,"HEIMAN / KEHL",,  43.434332, -80.487309,,,0,
3060,3060,"HEIMAN / MILL",,  43.435422, -80.485695,,,0,
3061,3061,"HEIMAN / KEHL",,  43.434574, -80.487147,,,0,
3062,3062,"HEIMAN / HIGHLAND",,  43.433465, -80.489010,,,0,
3063,3063,"HOFFMAN / HIGHLAND",,  43.430529, -80.486873,,,0,
3064,3064,"HOFFMAN / KEHL",,  43.431250, -80.484927,,,0,
3065,3065,"HOFFMAN / MEINZINGER",,  43.431969, -80.482697,,,0,
3066,3066,"HOFFMAN / DONLEY",,  43.431979, -80.480967,,,0,
3067,3067,"HOFFMAN / OTTAWA",,  43.431785, -80.479770,,,0,
3068,3068,"QUEEN / ST. GEORGE",,  43.447147, -80.491985,,,0,
3069,3069,"QUEEN / SCHNEIDER",,  43.444727, -80.494526,,,0,
3074,3074,"STIRLING / HIGHLAND",,  43.436152, -80.491731,,,0,
3075,3075,"STIRLING / LORNE",,  43.435298, -80.494098,,,0,
3076,3076,"STIRLING / MAUSSER",,  43.434127, -80.496060,,,0,
3083,3083,"GREENBROOK / STIRLING",,  43.429405, -80.497297,,,0,
3084,3084,"GREENBROOK / LAKESIDE",,  43.429015, -80.498709,,,0,
3085,3085,"GREENBROOK / FOREST HILL",,  43.428723, -80.501949,,,0,
3086,3086,"WESTMOUNT / VILLAGE",,  43.427771, -80.506552,,,0,
3091,3091,"GREENBROOK / BIRCHCLIFF",,  43.424015, -80.512673,,,0,
3093,3093,"GREENBROOK / FISCHER-HALLMAN",,  43.420893, -80.515428,,,0,
3094,3094,"GREENBROOK / RUSKVIEW",,  43.421035, -80.515020,,,0,
3095,3095,"GREENBROOK / BIRCHCLIFF",,  43.424050, -80.512525,,,0,
3096,3096,"FOREST HILL SHOPPING CTR",,  43.426079, -80.511100,,,0,
3097,3097,"GREENBROOK / WESTMOUNT",,  43.428205, -80.507068,,,0,
3098,3098,"GREENBROOK / FOREST HILL",,  43.428528, -80.502679,,,0,
3099,3099,"GREENBROOK / LAKESIDE",,  43.428891, -80.499118,,,0,
3100,3100,"GREENBROOK / STIRLING",,  43.429510, -80.496666,,,0,
3102,3102,"STIRLING / MAUSSER",,  43.433667, -80.495952,,,0,
3103,3103,"STIRLING / LORNE",,  43.435332, -80.493789,,,0,
3104,3104,"STIRLING / LORNE",,  43.435893, -80.492202,,,0,
3105,3105,"HIGHLAND / SPADINA",,  43.438669, -80.492822,,,0,
3109,3109,"Victoria / King",,  43.452300, -80.498579,,,0,
3110,3110,"Victoria / Joseph",,  43.450558, -80.500278,,,0,
3111,3111,"VICTORIA / BRAMM",,  43.449512, -80.501432,,,0,
3112,3112,"VICTORIA / HENRY",,  43.447800, -80.503312,,,0,
3113,3113,"VICTORIA / PATRICIA",,  43.444330, -80.508729,,,0,
3114,3114,"VICTORIA / BELMONT",,  43.443013, -80.512298,,,0,
3115,3115,"VICTORIA / ALICE",,  43.441828, -80.515261,,,0,
3116,3116,"VICTORIA / PAULANDER",,  43.440676, -80.517705,,,0,
3117,3117,"VICTORIA / WESTMOUNT",,  43.439735, -80.520728,,,0,
3118,3118,"CHOPIN / WESTMOUNT",,  43.443401, -80.523170,,,0,
3119,3119,"HAZELGLEN / CHOPIN",,  43.440220, -80.526496,,,0,
3126,3126,"HAZELGLEN / VICTORIA",,  43.438624, -80.524196,,,0,
3128,3128,"VICTORIA / FENWICK",,  43.437527, -80.526738,,,0,
3132,3132,"VICTORIA / WESTFOREST",,  43.433321, -80.539831,,,0,
3142,3142,"VICTORIA / FISCHER-HALLMAN",,  43.436543, -80.528541,,,0,
3143,3143,"FISCHER-HALLMAN / VICTORIA",,  43.436843, -80.529202,,,0,
3144,3144,"FISCHER-HALLMAN / STOKE",,  43.439462, -80.535435,,,0,
3145,3145,"BINGEMANS CENTRE / SHIRLEY",,  43.473667, -80.443299,,,0,
3146,3146,"FISCHER-HALLMAN / UNIVERSITY",,  43.444402, -80.545691,,,0,
3147,3147,"SHIRLEY / HESH",,  43.475224, -80.438705,,,0,
3148,3148,"SHIRLEY / CEDARVIEW",,  43.476849, -80.433770,,,0,
3149,3149,"KEATS WAY / MIDWOOD",,  43.457871, -80.554465,,,0,
3150,3150,"KEATS WAY / MIDWOOD",,  43.457257, -80.551812,,,0,
3151,3151,"KEATS WAY / AMOS",,  43.458421, -80.549047,,,0,
3153,3153,"Keats Way / McDougall",,  43.461211, -80.545256,,,0,
3154,3154,"WESTHEIGHTS / MCGARRY",,  43.420047, -80.529423,,,0,
3155,3155,"WESTHEIGHTS / PATH TO SANDROCK GREENWAY",,  43.424527, -80.529846,,,0,
3156,3156,"Keats Way / McDougall",,  43.461526, -80.545130,,,0,
3158,3158,"Keats Way / Amos",,  43.459117, -80.548473,,,0,
3159,3159,"Keats Way / Midwood",,  43.457321, -80.552022,,,0,
3160,3160,"KEATS WAY / CANDLEWOOD",,  43.458186, -80.554587,,,0,
3162,3162,"Fischer-Hallman / Keats Way",,  43.457633, -80.557640,,,0,
3163,3163,"SHIRLEY / CRESTVIEW",,  43.477915, -80.430780,,,0,
3164,3164,"SHIRLEY / RIVERVIEW",,  43.479135, -80.428061,,,0,
3165,3165,"FISCHER-HALLMAN / THORNDALE",,  43.448562, -80.550307,,,0,
3167,3167,"FISCHER-HALLMAN / UNIVERSITY",,  43.443524, -80.544697,,,0,
3169,3169,"FISCHER-HALLMAN / STOKE",,  43.439247, -80.535585,,,0,
3170,3170,"FISCHER-HALLMAN / VICTORIA",,  43.436050, -80.528862,,,0,
3173,3173,"HIGHLAND / FISCHER-HALLMAN",,  43.431422, -80.525896,,,0,
3175,3175,"HIGHLAND / FIELDGATE",,  43.433930, -80.519390,,,0,
3178,3178,"WESTMOUNT / OVERLEA",,  43.435279, -80.512546,,,0,
3179,3179,"WESTMOUNT / QUEENS",,  43.433612, -80.510273,,,0,
3180,3180,"WESTMOUNT / FOREST HILL",,  43.430264, -80.508558,,,0,
3181,3181,"WESTMOUNT / STONYBROOK",,  43.425268, -80.504522,,,0,
3182,3182,"WESTMOUNT / OTTAWA",,  43.420638, -80.502089,,,0,
3183,3183,"WESTMOUNT / OTTAWA",,  43.419304, -80.501742,,,0,
3184,3184,"WESTMOUNT / LAURENTIAN",,  43.416807, -80.501169,,,0,
3185,3185,"WESTMOUNT / WILLIAMSBURG",,  43.412760, -80.500214,,,0,
3186,3186,"PATH TO KILLARNEY",,  43.411760, -80.496146,,,0,
3188,3188,"PATH TO KILLARNEY",,  43.411799, -80.496665,,,0,
3189,3189,"BLOCK LINE / WESTMOUNT",,  43.411515, -80.498966,,,0,
3190,3190,"WESTMOUNT / WILLIAMSBURG",,  43.413219, -80.500136,,,0,
3191,3191,"WESTMOUNT / LAURENTIAN",,  43.417049, -80.501007,,,0,
3192,3192,"WESTMOUNT / OTTAWA",,  43.419519, -80.501567,,,0,
3193,3193,"WESTMOUNT / STONYBROOK",,  43.425492, -80.504483,,,0,
3194,3194,"WESTMOUNT / VILLAGE",,  43.427472, -80.506122,,,0,
3195,3195,"WESTMOUNT / FOREST HILL",,  43.431022, -80.508849,,,0,
3196,3196,"WESTMOUNT / QUEENS",,  43.433305, -80.509880,,,0,
3197,3197,"WESTMOUNT / OVERLEA",,  43.435405, -80.512471,,,0,
3198,3198,"HIGHLAND / WESTMOUNT",,  43.435571, -80.515509,,,0,
3199,3199,"HIGHLAND / FIELDGATE",,  43.434012, -80.519624,,,0,
3212,3212,"VICTORIA / MONTE CARLO",,  43.437640, -80.525823,,,0,
3214,3214,"HAZELGLEN / MOOREGATE",,  43.438804, -80.524318,,,0,
3215,3215,"HAZELGLEN / CHOPIN",,  43.440344, -80.526432,,,0,
3216,3216,"CHOPIN / WESTMOUNT",,  43.443346, -80.523072,,,0,
3217,3217,"WESTMOUNT / KARN",,  43.441885, -80.522465,,,0,
3218,3218,"VICTORIA / WESTMOUNT",,  43.439643, -80.520308,,,0,
3219,3219,"VICTORIA / PAULANDER",,  43.440585, -80.517434,,,0,
3220,3220,"VICTORIA / LAWRENCE",,  43.441969, -80.514692,,,0,
3221,3221,"VICTORIA / PATRICIA",,  43.444337, -80.508259,,,0,
3222,3222,"VICTORIA / WEST",,  43.444879, -80.506549,,,0,
3224,3224,"VICTORIA / PARK",,  43.448220, -80.502604,,,0,
3225,3225,"VICTORIA / MICHAEL",,  43.449296, -80.501446,,,0,
3226,3226,"VICTORIA / KING",,  43.452622, -80.498131,,,0,
3227,3227,"VICTORIA / JOSEPH",,  43.450873, -80.499678,,,0,
3228,3228,"FAIRVIEW PARK TERMINAL",,  43.422976, -80.441018,,,0,place_FVM
3229,3229,"OTTAWA / STRASBURG",,  43.422932, -80.487332,,,0,
3237,3237,"UNION / LUCAN",,  43.463028, -80.511915,,,0,
3238,3238,"UNION / HERBERT",,  43.460436, -80.514346,,,0,
3239,3239,"UNION / KING",,  43.458882, -80.515298,,,0,
3240,3240,"UNION / PARK",,  43.457292, -80.516287,,,0,
3241,3241,"PARK / UNION",,  43.456425, -80.515540,,,0,
3242,3242,"Grand River Hospital - Mount Hope Street",,  43.455786, -80.513568,,,0,
3243,3243,"Grand River Hospital - Green Street",,  43.454714, -80.511066,,,0,
3244,3244,"GLASGOW / YORK",,  43.453317, -80.513167,,,0,
3245,3245,"GLASGOW / EDEN",,  43.452392, -80.515721,,,0,
3246,3246,"GLASGOW / BELMONT",,  43.451760, -80.517493,,,0,
3248,3248,"GLASGOW / WESTMOUNT P.S.",,  43.450570, -80.520903,,,0,
3249,3249,"GLASGOW / WESTMOUNT",,  43.449580, -80.523678,,,0,
3250,3250,"GLASGOW / ABERDEEN",,  43.448548, -80.526726,,,0,
3251,3251,"INWOOD / GLASGOW",,  43.447556, -80.528501,,,0,
3252,3252,"INWOOD / WESTWOOD",,  43.445497, -80.527034,,,0,
3253,3253,"WESTWOOD / WESTWOOD",,  43.445138, -80.529583,,,0,
3254,3254,"WESTWOOD / KNELL",,  43.444939, -80.531648,,,0,
3255,3255,"WESTWOOD / HUNTINGTON",,  43.444116, -80.532791,,,0,
3256,3256,"WESTWOOD / GALLARNO",,  43.442505, -80.535164,,,0,
3257,3257,"WESTWOOD / DAYMAN",,  43.441892, -80.537307,,,0,
3258,3258,"WESTWOOD / GLASGOW",,  43.443641, -80.540160,,,0,
3259,3259,"FISCHER-HALLMAN / GLASGOW",,  43.442903, -80.542709,,,0,
3260,3260,"UNIVERSITY / FISCHER-HALLMAN",,  43.443796, -80.545537,,,0,
3264,3264,"UNIVERSITY / COUNTRYSTONE PL",,  43.440020, -80.551149,,,0,
3265,3265,"RESURRECTION C.S.S.",,  43.441176, -80.547371,,,0,
3266,3266,"WESTWOOD / GLASGOW",,  43.443398, -80.540051,,,0,
3267,3267,"WESTWOOD / DAYMAN",,  43.441699, -80.538630,,,0,
3268,3268,"WESTWOOD / GALLARNO",,  43.442264, -80.535685,,,0,
3269,3269,"WESTWOOD / FERNWOOD",,  43.445000, -80.531153,,,0,
3270,3270,"WESTWOOD / WESTWOOD",,  43.445058, -80.529756,,,0,
3271,3271,"WESTWOOD / INWOOD",,  43.445192, -80.527395,,,0,
3272,3272,"INWOOD / GLASGOW",,  43.447600, -80.528340,,,0,
3273,3273,"GLASGOW / ABERDEEN",,  43.448306, -80.527111,,,0,
3274,3274,"GLASGOW / WESTMOUNT",,  43.449374, -80.523988,,,0,
3275,3275,"GLASGOW / DUNBAR",,  43.450513, -80.520729,,,0,
3277,3277,"GLASGOW / BELMONT",,  43.452053, -80.516287,,,0,
3278,3278,"GLASGOW / YORK",,  43.452933, -80.513887,,,0,
3279,3279,"Grand River Hospital - Green Street",,  43.454676, -80.510796,,,0,
3280,3280,"LANGS / SHANNON",,  43.399211, -80.338296,,,0,
3281,3281,"UNION / PARK",,  43.457445, -80.516051,,,0,
3282,3282,"UNION / KING",,  43.458271, -80.515563,,,0,
3283,3283,"UNION / MARY",,  43.459447, -80.514849,,,0,
3284,3284,"UNION / HERBERT",,  43.460597, -80.514110,,,0,
3285,3285,"UNION / LUCAN",,  43.462660, -80.512351,,,0,
3293,3293,"QUEENS / HIGHLAND",,  43.440379, -80.498825,,,0,
3294,3294,"QUEENS / SPADINA",,  43.439214, -80.500046,,,0,
3295,3295,"QUEENS / ST. MARYS HOSPITAL",,  43.438510, -80.501658,,,0,
3296,3296,"QUEENS / BELMONT",,  43.436663, -80.503539,,,0,
3297,3297,"QUEENS / COMMUNITY TRAIL",,  43.435269, -80.505960,,,0,
3298,3298,"QUEENS / HAHN",,  43.434162, -80.508267,,,0,
3299,3299,"QUEENS / WESTMOUNT",,  43.433273, -80.510857,,,0,
3300,3300,"QUEENS / CECILE",,  43.432151, -80.513930,,,0,
3303,3303,"QUEENS / SILVERSPRING",,  43.430547, -80.517736,,,0,
3304,3304,"QUEENS / EAGEN",,  43.429657, -80.520214,,,0,
3306,3306,"QUEENS / FISCHER-HALLMAN",,  43.428548, -80.524337,,,0,
3307,3307,"QUEENS / HIGHLAND HILLS MALL",,  43.427693, -80.526530,,,0,
3308,3308,"ELM RIDGE / QUEENS",,  43.426644, -80.527589,,,0,
3309,3309,"ELM RIDGE / HILLBROOK",,  43.425667, -80.526447,,,0,
3310,3310,"ELM RIDGE / SILVER ASPEN",,  43.423743, -80.525042,,,0,
3311,3311,"ELM RIDGE / RAMBLEWOOD",,  43.422581, -80.522704,,,0,
3317,3317,"MCGARRY / ROYAL ORCHARD",,  43.419535, -80.528706,,,0,
3329,3329,"HIGHVIEW / SUGAR MAPLE",,  43.415675, -80.547215,,,0,
3330,3330,"HIGHVIEW / HIGHVIEW PL",,  43.416324, -80.542825,,,0,
3331,3331,"DRIFTWOOD / ROLLING MEADOWS",,  43.417260, -80.540632,,,0,
3332,3332,"DRIFTWOOD / WESTHEIGHTS",,  43.419117, -80.538963,,,0,
3333,3333,"WESTHEIGHTS / DRIFTWOOD CTR",,  43.418345, -80.535090,,,0,
3335,3335,"MCGARRY / ROYAL ORCHARD",,  43.419435, -80.528398,,,0,
3337,3337,"MCGARRY / MEADOWBROOK",,  43.420654, -80.524868,,,0,
3338,3338,"MCGARRY / PINEHURST",,  43.421544, -80.522415,,,0,
3340,3340,"ELM RIDGE / HICKORY HEIGHTS",,  43.422630, -80.521579,,,0,
3341,3341,"ELM RIDGE / HICKORY HEIGHTS",,  43.424294, -80.525396,,,0,
3342,3342,"ELM RIDGE / HILLBROOK",,  43.425278, -80.526055,,,0,
3343,3343,"QUEENS / HIGHLAND HILLS MALL",,  43.427602, -80.526346,,,0,
3344,3344,"QUEENS / BONFAIR",,  43.429504, -80.520364,,,0,
3345,3345,"QUEENS / SILVERSPRING",,  43.430233, -80.518146,,,0,
3346,3346,"QUEENS / WARREN",,  43.431536, -80.515269,,,0,
3347,3347,"QUEENS / CECILE",,  43.432381, -80.512903,,,0,
3348,3348,"QUEENS / WESTMOUNT",,  43.433155, -80.510685,,,0,
3349,3349,"QUEENS / BLUERIDGE",,  43.434054, -80.508194,,,0,
3350,3350,"QUEENS / COMMUNITY TRAIL",,  43.435196, -80.505837,,,0,
3351,3351,"QUEENS / BELMONT",,  43.436322, -80.503789,,,0,
3353,3353,"QUEENS / ST. MARYS HOSPITAL",,  43.437669, -80.500899,,,0,
3354,3354,"QUEENS / SPADINA",,  43.439338, -80.499687,,,0,
3355,3355,"QUEENS / HIGHLAND",,  43.440594, -80.498453,,,0,
3356,3356,"HIGHLAND / BELMONT",,  43.439438, -80.508163,,,0,
3357,3357,"HIGHLAND / LAWRENCE",,  43.438089, -80.510596,,,0,
3359,3359,"QUEENS / WESTHEIGHTS",,  43.426759, -80.529355,,,0,
3364,3364,"ROLLING MEADOWS / NEWBURY",,  43.422476, -80.545559,,,0,
3365,3365,"ROLLING MEADOWS / NEWBURY",,  43.420037, -80.548319,,,0,
3366,3366,"ROLLING MEADOWS / TRAILWOOD",,  43.418334, -80.545577,,,0,
3367,3367,"ROLLING MEADOW / MEADOW WOOD",,  43.417702, -80.543124,,,0,
3368,3368,"DRIFTWOOD / HIGHVIEW",,  43.416884, -80.541104,,,0,
3373,3373,"DRIFTWOOD / SOMERFIELD",,  43.413700, -80.535409,,,0,
3375,3375,"DRIFTWOOD / WESTHEIGHTS",,  43.418046, -80.534585,,,0,
3378,3378,"WESTHEIGHTS / BLACKWELL",,  43.422379, -80.541754,,,0,
3383,3383,"QUEENS / ELM RIDGE",,  43.426720, -80.528675,,,0,
3384,3384,"HIGHVIEW / SUGAR MAPLE",,  43.415685, -80.547499,,,0,
3389,3389,"HIGHLAND / WESTMOUNT",,  43.436290, -80.513242,,,0,
3390,3390,"HIGHLAND / LAWRENCE",,  43.437944, -80.510436,,,0,
3391,3391,"HIGHLAND / BELMONT",,  43.439508, -80.507767,,,0,
3392,3392,"ERBSVILLE / WHITE ELM",,  43.466688, -80.586086,,,0,
3393,3393,"DAVENPORT / OLD ABBEY",,  43.499769, -80.525720,,,0,
3394,3394,"SAGINAW / HADDAWAY",,  43.394948, -80.274787,,,0,
3395,3395,"OLDFIELD / OTTAWA",,  43.455514, -80.431980,,,0,
3396,3396,"COULTHARD / ARTHUR FACH",,  43.405269, -80.280703,,,0,
3397,3397,"COULTHARD / BAINTREE",,  43.404140, -80.284508,,,0,
3398,3398,"Can-Amera / Baintree",,  43.405435, -80.287098,,,0,
3399,3399,"BURNETT / CAN-AMERA",,  43.398267, -80.292912,,,0,
3400,3400,"LANCASTER / VICTORIA",,  43.458719, -80.482749,,,0,
3401,3401,"LANCASTER / WELLINGTON",,  43.460373, -80.483300,,,0,
3402,3402,"WELLINGTON / SPRING VALLEY",,  43.462576, -80.479934,,,0,
3403,3403,"809 WELLINGTON",,  43.464289, -80.475119,,,0,
3404,3404,"9 SHIRLEY",,  43.466243, -80.466627,,,0,
3406,3406,"100 SHIRLEY",,  43.468507, -80.461125,,,0,
3407,3407,"250 SHIRLEY",,  43.469182, -80.459118,,,0,
3411,3411,"JAMIESON / COOPER",,  43.420688, -80.289909,,,0,
3417,3417,"274 SHIRLEY",,  43.470065, -80.456430,,,0,
3419,3419,"400 BINGEMANS CENTRE",,  43.471018, -80.452202,,,0,
3420,3420,"BINGEMANS",,  43.471707, -80.449368,,,0,
3421,3421,"540 BINGEMANS CENTRE",,  43.472941, -80.445770,,,0,
3431,3431,"BINGEMANS CENTRE / VICTORIA",,  43.472313, -80.441375,,,0,
3432,3432,"GOLDEN EAGLE / NORTHLAKE",,  43.498382, -80.552448,,,0,
3433,3433,"NORTHLAKE / MAYVIEW",,  43.499217, -80.554137,,,0,
3437,3437,"LANCASTER / VICTORIA",,  43.459191, -80.482656,,,0,
3438,3438,"WELLINGTON / LANCASTER",,  43.461075, -80.482861,,,0,
3439,3439,"Wellington / Patrick",,  43.462161, -80.480627,,,0,
3440,3440,"809 WELLINGTON",,  43.463990, -80.475276,,,0,
3441,3441,"6 SHIRLEY",,  43.465989, -80.466649,,,0,
3442,3442,"40 SHIRLEY",,  43.466131, -80.464502,,,0,
3443,3443,"CHESAPEAKE / SEAWIND",,  43.511471, -80.509929,,,0,
3445,3445,"FISCHER-HALLMAN / COLUMBIA",,  43.467189, -80.565956,,,0,
3446,3446,"ERBSVILLE / KEATS WAY",,  43.455760, -80.574332,,,0,
3447,3447,"100 SHIRLEY",,  43.468314, -80.461250,,,0,
3448,3448,"250 SHIRLEY",,  43.469038, -80.459008,,,0,
3449,3449,"274 SHIRLEY",,  43.469850, -80.456589,,,0,
3451,3451,"ERBSVILLE / KEATS WAY",,  43.455883, -80.574134,,,0,
3452,3452,"ERBSVILLE / LEIGHLAND",,  43.457927, -80.576381,,,0,
3453,3453,"ERBSVILLE / COLUMBIA",,  43.462432, -80.581177,,,0,
3454,3454,"ERBSVILLE / COLUMBIA FOREST",,  43.464898, -80.584195,,,0,
3455,3455,"ERBSVILLE / COLUMBIA",,  43.462249, -80.581295,,,0,
3456,3456,"ERBSVILLE / LEIGHLAND",,  43.458035, -80.576719,,,0,
3457,3457,"400 BINGEMANS CENTRE",,  43.470785, -80.452520,,,0,
3458,3458,"BINGEMANS",,  43.471633, -80.448842,,,0,
3459,3459,"540 BINGEMANS CENTRE",,  43.472830, -80.445471,,,0,
3460,3460,"SHIRLEY / BINGEMANS CENTRE",,  43.473909, -80.441890,,,0,
3461,3461,"MCGARRY / FORESTWOOD",,  43.421667, -80.522398,,,0,
3463,3463,"KEATS WAY / SANDFORD FLEMING",,  43.455999, -80.561747,,,0,
3464,3464,"KEATS WAY / FISCHER-HALLMAN",,  43.458197, -80.557257,,,0,
3465,3465,"FISCHER-HALLMAN / KEATS WAY",,  43.458370, -80.557824,,,0,
3466,3466,"HIGHVIEW / GOLDEN MEADOW",,  43.415241, -80.550854,,,0,
3467,3467,"HIGHVIEW / GOLDEN MEADOW",,  43.415441, -80.550630,,,0,
3468,3468,"HIGHVIEW / HIGHVIEW",,  43.416455, -80.543017,,,0,
3469,3469,"DRIFTWOOD / WESTHEIGHTS",,  43.419151, -80.539098,,,0,
3471,3471,"WESTHEIGHTS / DRIFTWOOD",,  43.418479, -80.535375,,,0,
3472,3472,"MCGARRY / MEADOWBROOK",,  43.420690, -80.525090,,,0,
3473,3473,"IRA NEEDLES / PENELOPE",,  43.417476, -80.552948,,,0,
3474,3474,"ST. MARYS H.S.",,  43.420062, -80.465066,,,0,place_SMH
3476,3476,"IRA NEEDLES / PENELOPE",,  43.418388, -80.552656,,,0,
3477,3477,"THALER / KINZIE",,  43.435413, -80.432633,,,0,
3478,3478,"KINZIE / THALER",,  43.435724, -80.432433,,,0,
3479,3479,"RIVER / KINZIE",,  43.437171, -80.430960,,,0,
3480,3480,"KINZIE / RIVER",,  43.436717, -80.431260,,,0,
3481,3481,"FAIRWAY / THALER",,  43.432507, -80.429862,,,0,
3482,3482,"QUEENS / FISCHER-HALLMAN",,  43.428482, -80.523992,,,0,
3485,3485,"IRA NEEDLES / HIGHLAND MARKETPLACE",,  43.425611, -80.552824,,,0,
3487,3487,"IRA NEEDLES / PATH TO WESTMEADOW",,  43.425822, -80.552635,,,0,
3500,3500,"WESTHEIGHTS / AUTUMN HILL",,  43.422346, -80.529181,,,0,
3501,3501,"WESTHEIGHTS / AUTUMN HILL",,  43.422100, -80.529435,,,0,
3507,3507,"OLDFIELD / BRIERDALE",,  43.449105, -80.426568,,,0,
3511,3511,"QUEEN / WINSTON",,  43.427642, -80.318515,,,0,
3512,3512,"ELLIS / ADLER",,  43.429112, -80.288112,,,0,
3517,3517,"CAMBRIDGE CTR TERMINAL",,  43.391119, -80.319863,,,0,place_CBC
3518,3518,"INDUSTRIAL / LANGS",,  43.400685, -80.331080,,,0,
3519,3519,"CONCESSION / TRICO",,  43.402368, -80.346573,,,0,
3520,3520,"DOVER / ROSE",,  43.393221, -80.367600,,,0,
3522,3522,"LAUREL / NORTH",,  43.400857, -80.354715,,,0,
3524,3524,"FOUNTAIN / BLAIR",,  43.385720, -80.390864,,,0,
3525,3525,"FOUNTAIN / BLAIR",,  43.385390, -80.391399,,,0,
3526,3526,"WESTMINSTER / LAUREL",,  43.399442, -80.354495,,,0,
3527,3527,"HESPELER / ABBOTSFORD",,  43.380185, -80.319393,,,0,
3531,3531,"MAPLE GROVE / SALTSMAN",,  43.421934, -80.383793,,,0,
3532,3532,"ROSE / LOWTHER",,  43.389374, -80.360738,,,0,
3534,3534,"ST. ANDREWS / GILHOLM",,  43.353640, -80.322528,,,0,
3535,3535,"MAIN / HARRIS",,  43.358798, -80.310166,,,0,
3536,3536,"WELLINGTON / DICKSON",,  43.359967, -80.311461,,,0,
3539,3539,"HESPELER / ISHERWOOD",,  43.383091, -80.320484,,,0,
3540,3540,"QUEEN / GUELPH",,  43.430988, -80.311273,,,0,
3541,3541,"GUELPH / MILTON",,  43.440018, -80.313223,,,0,
3542,3542,"KERWOOD / HOUSLER",,  43.432580, -80.293921,,,0,
3544,3544,"777 INDUSTRIAL",,  43.403797, -80.332083,,,0,
3545,3545,"INDUSTRIAL / EAGLE",,  43.407045, -80.333172,,,0,
3546,3546,"SHELDON / THOMPSON",,  43.408217, -80.295736,,,0,
3547,3547,"180 SHELDON DR",,  43.404695, -80.310337,,,0,
3548,3548,"WESTHEIGHTS / DRIFTWOOD",,  43.419559, -80.539027,,,0,
3549,3549,"DRIFTWOOD / DRIFTWOOD",,  43.414687, -80.540775,,,0,
3550,3550,"DRIFTWOOD / YELLOW BIRCH",,  43.413082, -80.539448,,,0,
3551,3551,"DRIFTWOOD / ROYAL ORCHARD",,  43.416557, -80.534068,,,0,
3552,3552,"VICTORIA / BRAMBLEWOOD",,  43.430216, -80.548765,,,0,
3553,3553,"VICTORIA / BRAMBLEWOOD",,  43.430157, -80.548333,,,0,
3554,3554,"VICTORIA / PATH TO WINDING MEADOW",,  43.429380, -80.550663,,,0,
3555,3555,"VICTORIA / WESTFOREST",,  43.431704, -80.544009,,,0,
3556,3556,"VICTORIA / WESTFOREST",,  43.431751, -80.544444,,,0,
3558,3558,"HURON HEIGHTS S.S.",,  43.394076, -80.466448,,,0,place_HHS
3559,3559,"FREDERICK / TURNER",,  43.463495, -80.459587,,,0,
3560,3560,"FREDERICK / VICTORIA",,  43.465475, -80.458256,,,0,
3561,3561,"HALIFAX / CONFEDERATION",,  43.461771, -80.445463,,,0,
3564,3564,"VICTORIA / BELMONT",,  43.443287, -80.511233,,,0,
3565,3565,"VICTORIA / WEST",,  43.446088, -80.505019,,,0,
3566,3566,"280 VICTORIA ST S",,  43.445068, -80.506585,,,0,
3568,3568,"FAIRWAY / SIMS ESTATE",,  43.439812, -80.420634,,,0,
3570,3570,"FAIRWAY / BRIARMEADOW",,  43.439831, -80.420930,,,0,
3571,3571,"CENTENNIAL / VICTORIA",,  43.475260, -80.429210,,,0,
3572,3572,"CENTENNIAL / CENTENNIAL",,  43.473058, -80.430109,,,0,
3573,3573,"FORWELL / VICTORIA",,  43.473136, -80.436785,,,0,
3574,3574,"RIVER / GIBSON",,  43.455042, -80.446977,,,0,
3575,3575,"FREDERICK / WEBER",,  43.451182, -80.486142,,,0,
3576,3576,"WEBER / EASTWOOD S.S.",,  43.438918, -80.460691,,,0,place_ECI
3578,3578,"Krug / Lancaster",,  43.449699, -80.480828,,,0,
3579,3579,"KING / PANDORA",,  43.445207, -80.479099,,,0,
3580,3580,"WEBER / KITCHENER RAIL STATION",,  43.454651, -80.493409,,,0,
3581,3581,"KING / EZRA",,  43.472318, -80.524278,,,0,
3589,3589,"UNIVERSITY / WESTMOUNT",,  43.464492, -80.541461,,,0,
3590,3590,"FISCHER-HALLMAN / ERB",,  43.452700, -80.553811,,,0,
3593,3593,"BRIDGE / FROBISHER",,  43.511993, -80.522544,,,0,
3594,3594,"NEW BEDFORD / STARBOARD",,  43.510610, -80.504294,,,0,
3595,3595,"NEW BEDFORD / EASTBRIDGE",,  43.511072, -80.500925,,,0,
3598,3598,"NEW BEDFORD / STARBOARD",,  43.510664, -80.504442,,,0,
3599,3599,"NEW BEDFORD / CHESAPEAKE",,  43.510066, -80.505672,,,0,
3600,3600,"PINEBUSH / HESPELER",,  43.408051, -80.327116,,,0,
3605,3605,"KUMPF / RANDALL",,  43.504295, -80.544686,,,0,
3606,3606,"WEBER / ERB",,  43.468616, -80.511153,,,0,
3607,3607,"BLEAMS / FALLOWFIELD",,  43.411068, -80.456924,,,0,
3608,3608,"BLEAMS / FALLOWFIELD",,  43.411009, -80.457802,,,0,
3609,3609,"CORONATION / HIGHLAND",,  43.382533, -80.334317,,,0,
3612,3612,"LANGLAW / SCHROEDER",,  43.336574, -80.301092,,,0,
3614,3614,"FAIRWAY / FAIRVIEW PARK MALL",,  43.421594, -80.440091,,,0,
3618,3618,"COURTLAND / STIRLING",,  43.441316, -80.484767,,,0,
3619,3619,"LAURIER",,  43.475233, -80.527903,,,0,
3620,3620,"LAURIER",,  43.475123, -80.527557,,,0,
3621,3621,"UNIVERSITY / KING",,  43.475766, -80.526365,,,0,place_KUN
3622,3622,"LEXINGTON / DEARBORN",,  43.487015, -80.518239,,,0,
3623,3623,"HAZEL / COLUMBIA",,  43.480084, -80.531909,,,0,
3627,3627,"McCORMICK",,  43.489252, -80.545627,,,0,
3628,3628,"McCORMICK",,  43.489727, -80.545381,,,0,
3629,3629,"R & T PARK",,  43.479246, -80.549597,,,0,
3630,3630,"R & T PARK",,  43.478965, -80.549031,,,0,
3631,3631,"UNIVERSITY / WESTMOUNT",,  43.464122, -80.541390,,,0,
3637,3637,"ELM RIDGE / QUEENS",,  43.426977, -80.527685,,,0,
3641,3641,"CONESTOGA COLLEGE ENTRANCE",,  43.387933, -80.411325,,,0,
3642,3642,"WEBER / BROADVIEW",,  43.435021, -80.449729,,,0,
3645,3645,"FOUNTAIN / MAPLE GROVE",,  43.424219, -80.378421,,,0,
3646,3646,"BOXWOOD / MAPLE GROVE",,  43.428126, -80.365001,,,0,
3647,3647,"BOXWOOD / VONDRAU",,  43.430573, -80.371116,,,0,
3648,3648,"BOXWOOD / VONDRAU",,  43.429883, -80.375052,,,0,
3649,3649,"MAPLE GROVE / VONDREAU",,  43.425363, -80.374364,,,0,
3657,3657,"LANCASTER / HWY 85 RAMP",,  43.472046, -80.484308,,,0,
3659,3659,"FRANKLIN / CAN-AMERA PARKWAY",,  43.394287, -80.303207,,,0,
3660,3660,"FRANKLIN / CAN-AMERA",,  43.394529, -80.303007,,,0,
3661,3661,"ECKERT / DIXON",,  43.434380, -80.458817,,,0,
3662,3662,"UNIVERSITY / BAKER",,  43.437591, -80.558717,,,0,
3663,3663,"UNIVERSITY / COUNTRYSTONE",,  43.437509, -80.558402,,,0,
3664,3664,"UNIVERSITY / COUNTRYSTONE",,  43.438930, -80.554386,,,0,
3665,3665,"UNIVERSITY / PASTERN",,  43.491948, -80.490954,,,0,
3671,3671,"UNIVERSITY / PASTERN",,  43.491851, -80.491288,,,0,
3672,3672,"BRIDGE / UNIVERSITY",,  43.489713, -80.494137,,,0,
3673,3673,"BRIDGE / CRIMSON",,  43.492897, -80.497736,,,0,
3674,3674,"DANSBURY / EIWO",,  43.495825, -80.502387,,,0,
3675,3675,"DANSBURY / LEE",,  43.494674, -80.504660,,,0,
3676,3676,"DUNVEGAN / BAIRSTOW",,  43.493591, -80.508367,,,0,
3677,3677,"LEXINGTON / DUNVEGAN",,  43.494535, -80.510202,,,0,
3678,3678,"DUNVEGAN / BAIRSTOW",,  43.493492, -80.508466,,,0,
3679,3679,"BRIDGE / DANSBURY",,  43.495943, -80.501280,,,0,
3680,3680,"BRIDGE / CRIMSON",,  43.492771, -80.497805,,,0,
3682,3682,"HAZEL / UNIVERSITY",,  43.475344, -80.528333,,,0,
3683,3683,"UNIVERSITY / SEAGRAM",,  43.468939, -80.539140,,,0,
3685,3685,"ERBSVILLE / ERB",,  43.447900, -80.572632,,,0,
3687,3687,"ERB / ERBSVILLE",,  43.448332, -80.565666,,,0,
3690,3690,"ERBSVILLE / ROYAL BEECH",,  43.451364, -80.571865,,,0,
3691,3691,"PATH TO ERBSVILLE",,  43.453282, -80.571927,,,0,
3692,3692,"KEATS WAY / KEATSWOOD",,  43.455817, -80.573219,,,0,
3693,3693,"KEATS WAY /  BEECHWOOD",,  43.456485, -80.571150,,,0,
3694,3694,"KEATS WAY / LEIGHLAND",,  43.457464, -80.568251,,,0,
3695,3695,"KEATS WAY / BRYNHURST",,  43.456713, -80.564869,,,0,
3697,3697,"LAKE LOUISE / KELSO",,  43.490676, -80.581309,,,0,
3698,3698,"LAKE LOUISE / PINERY",,  43.492559, -80.581605,,,0,
3715,3715,"EASTWOOD C.I.",,  43.439272, -80.461306,,,0,place_ECI
3720,3720,"Grand River Hospital - Mount Hope Street",,  43.456159, -80.514492,,,0,
3723,3723,"860 TRILLIUM DR",,  43.400139, -80.484672,,,0,
3724,3724,"825 TRILLIUM DR",,  43.399551, -80.484158,,,0,
3725,3725,"FAIRWAY / LACKNER",,  43.442570, -80.415875,,,0,
3726,3726,"FAIRWAY / LACKNER",,  43.442892, -80.415629,,,0,
3727,3727,"KING / MARTIN GROVE",,  43.510267, -80.542983,,,0,
3728,3728,"KING / BRIDGE",,  43.510060, -80.543034,,,0,
3729,3729,"SAWMILL / ARTHUR",,  43.543368, -80.547944,,,0,
3730,3730,"KING / SCOTT",,  43.448199, -80.485487,,,0,
3731,3731,"FAIRWAY / RIVER",,  43.434780, -80.428145,,,0,
3733,3733,"HURON / PARKVALE",,  43.389173, -80.471626,,,0,
3734,3734,"PARKVALE / HURON NATURAL PK",,  43.389999, -80.474559,,,0,
3735,3735,"PARKVALE / WOODBINE",,  43.389316, -80.478812,,,0,
3736,3736,"PARKVALE / HURON PK",,  43.389546, -80.482008,,,0,
3737,3737,"PARKVALE / WOODBINE",,  43.388897, -80.485718,,,0,
3738,3738,"WOODBINE / SOPHIA",,  43.386649, -80.484588,,,0,
3739,3739,"WOODBINE / HURON",,  43.383529, -80.483417,,,0,
3740,3740,"HURON / CRANSHAW",,  43.386660, -80.475057,,,0,
3741,3741,"HURON / NEWCASTLE",,  43.388860, -80.471828,,,0,
3742,3742,"FOUNTAIN /COMDEV SOCCER DOME",,  43.409289, -80.373226,,,0,
3743,3743,"WILLIAM / CAROLINE",,  43.461080, -80.521894,,,0,
3744,3744,"WELLINGTON / WEBER",,  43.457111, -80.495053,,,0,
3745,3745,"CONSERVATION / WATERTON",,  43.491411, -80.577977,,,0,
3746,3746,"PIONEER / BECHTEL",,  43.393699, -80.436693,,,0,
3747,3747,"COLUMBIA / MARSLAND",,  43.484293, -80.519695,,,0,
3748,3748,"LEXINGTON / DEARBORN",,  43.489981, -80.516954,,,0,
3749,3749,"LEXINGTON / BRIDGE",,  43.498016, -80.505041,,,0,
3750,3750,"UNIVERSITY / NEW BEDFORD",,  43.510841, -80.497500,,,0,
3752,3752,"R.I.M. PARK",,  43.517873, -80.502667,,,0,
3757,3757,"FROBISHER / BRIDGE",,  43.511915, -80.523274,,,0,
3758,3758,"FROBISHER / SUPERIOR",,  43.510245, -80.524401,,,0,
3759,3759,"FROBISHER / MCMURRAY",,  43.507544, -80.526575,,,0,
3760,3760,"FROBISHER / SUPERIOR",,  43.509912, -80.524490,,,0,
3764,3764,"LEXINGTON / LEE",,  43.497196, -80.506493,,,0,
3765,3765,"R.I.M. PARK",,  43.517319, -80.502299,,,0,
3766,3766,"UNIVERSITY / NEW BEDFORD",,  43.510688, -80.497752,,,0,
3768,3768,"LEXINGTON / BRIDGE",,  43.498486, -80.504554,,,0,
3769,3769,"LEXINGTON / DEARBORN",,  43.490483, -80.516443,,,0,
3770,3770,"LEXINGTON / DEARBORN",,  43.487547, -80.518470,,,0,
3771,3771,"COLUMBIA / MARSLAND",,  43.484377, -80.519865,,,0,
3772,3772,"COLUMBIA / WEBER",,  43.483533, -80.522156,,,0,
3773,3773,"COLUMBIA / WEBER",,  43.482726, -80.523924,,,0,
3774,3774,"WEBER / GLEN FORREST",,  43.494458, -80.548383,,,0,
3777,3777,"PARKSIDE / NORTHFIELD",,  43.496888, -80.545815,,,0,
3780,3780,"CHESAPEAKE / SEAWIND",,  43.511299, -80.509745,,,0,
3781,3781,"CHESAPEAKE / BRIGANTINE",,  43.509143, -80.517284,,,0,
3782,3782,"CHESAPEAKE / SANDY COVE",,  43.510043, -80.506439,,,0,
3783,3783,"BRIDGE / WHITMORE",,  43.500750, -80.506391,,,0,
3784,3784,"BRIDGE / LEXINGTON",,  43.498127, -80.503568,,,0,
3789,3789,"BRIDGE / LEXINGTON",,  43.498614, -80.503935,,,0,
3790,3790,"BRIDGE / WHITMORE",,  43.501437, -80.506992,,,0,
3792,3792,"BLAIR / ESTHER",,  43.374865, -80.339672,,,0,
3793,3793,"PRINCESS / ROSSLINN",,  43.372346, -80.341538,,,0,
3794,3794,"PRINCESS / WESTCLIFF",,  43.370400, -80.344558,,,0,
3795,3795,"BISMARK / BLOSSOMFIELD",,  43.369261, -80.340683,,,0,
3796,3796,"BISMARK / DEVILS CREEK",,  43.370565, -80.337225,,,0,
3797,3797,"CAMBRIDGE CTR TERMINAL",,  43.391108, -80.319456,,,0,place_CBC
3798,3798,"CONESTOGA MALL TERMINAL",,  43.498181, -80.529283,,,0,place_CML
3799,3799,"CONESTOGA MALL TERMINAL",,  43.498071, -80.528653,,,0,place_CML
3800,3800,"CONESTOGA MALL TERMINAL",,  43.498415, -80.529132,,,0,place_CML
3801,3801,"CONESTOGA COLLEGE / PINNACLE",,  43.385896, -80.412394,,,0,
3802,3802,"CONESTOGA COLLEGE / PINNACLE",,  43.385484, -80.412867,,,0,
3803,3803,"CONESTOGA COLLEGE RESIDENCE",,  43.384395, -80.411236,,,0,
3804,3804,"CONESTOGA COLLEGE RESIDENCE",,  43.384241, -80.410978,,,0,
3805,3805,"BLAIR / ESTHER",,  43.373864, -80.336239,,,0,
3806,3806,"BISHOP / HESPELER",,  43.394855, -80.325785,,,0,
3807,3807,"FARMERS MARKET / WALMART",,  43.510661, -80.549376,,,0,
3808,3808,"KING / PRINTERY",,  43.528045, -80.555335,,,0,
3809,3809,"SAWMILL / PARKSIDE",,  43.544793, -80.550855,,,0,
3810,3810,"ARTHUR / UNION",,  43.576841, -80.563039,,,0,
3811,3811,"ARTHUR / EARL MARTIN",,  43.580927, -80.562452,,,0,
3812,3812,"ARTHUR / SOUTH FIELD",,  43.584050, -80.562095,,,0,
3813,3813,"ARTHUR / ORIOLE",,  43.589045, -80.561439,,,0,
3814,3814,"ARTHUR / BRUBACHER",,  43.594525, -80.560718,,,0,
3815,3815,"ARTHUR / PARK",,  43.596693, -80.560095,,,0,
3816,3816,"ARTHUR / WYATT",,  43.597959, -80.559169,,,0,
3817,3817,"ARTHUR / MILL",,  43.599333, -80.558143,,,0,
3818,3818,"CHURCH / MAPLE",,  43.600215, -80.559988,,,0,
3819,3819,"SNYDER / CHURCH",,  43.600064, -80.563305,,,0,
3820,3820,"SNYDER / SOUTH",,  43.596905, -80.563724,,,0,
3821,3821,"SNYDER / BRUBACHER",,  43.595249, -80.563959,,,0,
3822,3822,"SNYDER / SECOND",,  43.593404, -80.564195,,,0,
3823,3823,"FIRST / SNYDER",,  43.592339, -80.563385,,,0,
3824,3824,"ARTHUR / HOWARD",,  43.589432, -80.561561,,,0,
3825,3825,"ARTHUR / SOUTH FIELD",,  43.584474, -80.562265,,,0,
3826,3826,"ARTHUR / SOUTH PARKWOOD",,  43.580784, -80.562788,,,0,
3827,3827,"ARTHUR / UNION",,  43.577283, -80.563222,,,0,
3828,3828,"SAWMILL / PARKSIDE",,  43.544066, -80.549090,,,0,
3829,3829,"KING / FRONT",,  43.540580, -80.553436,,,0,
3831,3831,"KING / HENRY",,  43.531879, -80.554874,,,0,
3832,3832,"KING / PRINTERY",,  43.528342, -80.555457,,,0,
3833,3833,"FARMERS MARKET / BENJAMIN",,  43.509876, -80.555803,,,0,
3834,3834,"FARMERS MARKET / WALMART",,  43.510247, -80.549490,,,0,
3835,3835,"BISHOP / PINEVIEW",,  43.391549, -80.344096,,,0,
3836,3836,"KING / LOBSINGER",,  43.515878, -80.557268,,,0,
3837,3837,"ARTHUR / GERRAT",,  43.554796, -80.555361,,,0,
3838,3838,"ARTHUR / SCOTCH LINE",,  43.567128, -80.561289,,,0,
3839,3839,"ARTHUR / SCOTCH LINE",,  43.567084, -80.561475,,,0,
3840,3840,"ARTHUR / GERRAT",,  43.554066, -80.555243,,,0,
3841,3841,"KING / LOBSINGER",,  43.515438, -80.557593,,,0,
3843,3843,"HURON / TEMPLEWOOD",,  43.394100, -80.464602,,,0,
3844,3844,"HURON / TEMPLEWOOD",,  43.394542, -80.464012,,,0,
3845,3845,"CONESTOGA TRANSIT GARAGE",,  43.394522, -80.316689,,,0,
3849,3849,"MAPLE GROVE / VONDRAU",,  43.425378, -80.372998,,,0,
3850,3850,"BISHOP / INDUSTRIAL",,  43.394301, -80.329607,,,0,
3851,3851,"BISHOP / INDUSTRIAL",,  43.394332, -80.328681,,,0,
3852,3852,"BALDWIN / OSGOODE",,  43.449196, -80.307706,,,0,
3853,3853,"BALDWIN / BALDWIN",,  43.447600, -80.307181,,,0,
3854,3854,"BALDWIN / HENWOOD",,  43.445624, -80.306561,,,0,
3855,3855,"BALDWIN / SILVERTHORNE",,  43.441675, -80.307273,,,0,
3856,3856,"BALDWIN / SCOTT",,  43.441746, -80.313093,,,0,
3857,3857,"FRANKLIN / EDWARD",,  43.426843, -80.309963,,,0,
3858,3858,"DUNBAR / INDUSTRIAL",,  43.389280, -80.328699,,,0,
3860,3860,"AVENUE / ELGIN",,  43.378733, -80.308558,,,0,
3861,3861,"CEDAR / ST. ANDREWS",,  43.352325, -80.323961,,,0,
3862,3862,"CEDAR / GRAND",,  43.353242, -80.317621,,,0,
3863,3863,"CEDAR / GRAND",,  43.353425, -80.318075,,,0,
3864,3864,"CEDAR / GLENMORRIS",,  43.352573, -80.323317,,,0,
3871,3871,"BROOKLYNE / GLEN",,  43.377132, -80.313316,,,0,
3873,3873,"ARTHUR / FIRST",,  43.592563, -80.560931,,,0,
3874,3874,"WESTMOUNT / FISCHER-HALLMAN",,  43.406532, -80.498845,,,0,
3877,3877,"954 BISHOP",,  43.393268, -80.334656,,,0,
3878,3878,"695 BISHOP",,  43.393044, -80.336350,,,0,
3879,3879,"UNIVERSITY / WESTVALE",,  43.440892, -80.548781,,,0,
3880,3880,"UNIVERSITY / PORTSMOUTH",,  43.439230, -80.554021,,,0,
3881,3881,"THE BOARDWALK TERMINAL",,  43.435489, -80.560757,,,0,place_TBW
3882,3882,"DAVENPORT / CONESTOGA MALL",,  43.498340, -80.524049,,,0,
3883,3883,"IRA NEEDLES / UNIVERSITY",,  43.436803, -80.559624,,,0,
3884,3884,"Arthur / Rail Tracks",,  43.561598, -80.558679,,,0,
3885,3885,"Arthur / Rail Tracks",,  43.561130, -80.558683,,,0,
3886,3886,"RANDALL / KUMPF",,  43.503792, -80.545073,,,0,
3888,3888,"Conestoga College Cambridge Campus",,  43.385262, -80.397721,,,0,
3890,3890,"FISCHER-HALLMAN / COLUMBIA",,  43.467368, -80.565646,,,0,
3891,3891,"FISCHER-HALLMAN / HIGHLAND",,  43.431587, -80.525376,,,0,
3892,3892,"FISCHER-HALLMAN / HIGHLAND",,  43.431308, -80.525440,,,0,
3894,3894,"FISCHER-HALLMAN / ACTIVA",,  43.413723, -80.508470,,,0,
3897,3897,"BELMONT / GLASGOW",,  43.451984, -80.517195,,,0,
3898,3898,"COLUMBIA / U.W.",,  43.475009, -80.545981,,,0,
3899,3899,"COLUMBIA / U.W.",,  43.474462, -80.546591,,,0,
3900,3900,"LEXINGTON / DAVENPORT",,  43.493051, -80.512576,,,0,
3901,3901,"THE BOARDWALK / LIFESTYLE WAY",,  43.437644, -80.562930,,,0,
3902,3902,"PATH TO CARDIFF",,  43.439840, -80.562791,,,0,
3903,3903,"IRA NEEDLES / THORNDALE",,  43.441764, -80.564816,,,0,
3904,3904,"IRA NEEDLES / THORNDALE",,  43.441615, -80.565012,,,0,
3905,3905,"IRA NEEDLES / ERB",,  43.446092, -80.570729,,,0,
3906,3906,"IRA NEEDLES / ERB",,  43.445416, -80.570480,,,0,
3907,3907,"Keats Way / Fischer-Hallman",,  43.458261, -80.557528,,,0,
3908,3908,"THE BOARDWALK TERMINAL",,  43.435157, -80.560442,,,0,place_TBW
3909,3909,"WESTMOUNT / HIGHLAND",,  43.436134, -80.514615,,,0,
3910,3910,"WESTMOUNT / VICTORIA",,  43.439826, -80.521073,,,0,
3911,3911,"WESTMOUNT / BRYBECK",,  43.443686, -80.522476,,,0,
3912,3912,"WESTMOUNT / WESTWOOD",,  43.446866, -80.522945,,,0,
3913,3913,"WESTMOUNT / GLASGOW",,  43.449381, -80.523581,,,0,
3914,3914,"WESTMOUNT / UNION",,  43.452425, -80.525707,,,0,
3915,3915,"WESTMOUNT / HIGHLAND",,  43.436100, -80.515184,,,0,
3916,3916,"WESTMOUNT / VICTORIA",,  43.439159, -80.520917,,,0,
3917,3917,"WESTMOUNT / CHOPIN",,  43.443110, -80.522653,,,0,
3918,3918,"WESTMOUNT / WESTWOOD",,  43.446318, -80.523123,,,0,
3919,3919,"WESTMOUNT / GLASGOW",,  43.449166, -80.523693,,,0,
3920,3920,"WESTMOUNT / UNION",,  43.451748, -80.525366,,,0,
3922,3922,"WINSTON / GUNN",,  43.421221, -80.304962,,,0,
3923,3923,"WINSTON / KARL",,  43.421625, -80.301782,,,0,
3924,3924,"WINSTON / HANDORF",,  43.421213, -80.297784,,,0,
3925,3925,"WINSTON / COOPER",,  43.422120, -80.292421,,,0,
3926,3926,"COOPER / ADLER",,  43.425890, -80.293863,,,0,
3930,3930,"JAMIESON / TOWNLINE",,  43.424957, -80.285721,,,0,
3931,3931,"JAMIESON / LARDNER",,  43.423526, -80.287294,,,0,
3932,3932,"JAMIESON / PATTON",,  43.421787, -80.288574,,,0,
3934,3934,"FOUNTAIN / MARMEL",,  43.403758, -80.369990,,,0,
3935,3935,"CHERRY BLOSSOM / FOUNTAIN",,  43.412811, -80.375104,,,0,
3936,3936,"CHERRY BLOSSOM / SALTSMAN",,  43.414206, -80.379932,,,0,
3937,3937,"CHERRY BLOSSOM / BARNES",,  43.415805, -80.384201,,,0,
3939,3939,"MAPLE GROVE / CHERRY BLOSSOM",,  43.416532, -80.387183,,,0,
3940,3940,"CHERRY BLOSSOM / SALTSMAN",,  43.414008, -80.379971,,,0,
3941,3941,"FOUNTAIN / A.T.S.",,  43.408685, -80.373207,,,0,
3942,3942,"FOUNTAIN / MARMEL",,  43.403834, -80.370293,,,0,
3943,3943,"UNIVERSITY / PHILLIP",,  43.472149, -80.535716,,,0,
3945,3945,"UNIVERSITY / SUNVIEW",,  43.473156, -80.532914,,,0,
3949,3949,"LAURELWOOD / BEARINGER",,  43.474796, -80.572541,,,0,
3953,3953,"DOON MILLS / WOODSMERE",,  43.382853, -80.428510,,,0,
3954,3954,"DOON VILLAGE / ANVIL",,  43.390773, -80.438548,,,0,
3955,3955,"DOON MILLS / APPLE RIDGE",,  43.387201, -80.435420,,,0,
3956,3956,"DOON MILLS / PINE VALLEY",,  43.385947, -80.431444,,,0,
3957,3957,"DOON SOUTH / FOREST EDGE",,  43.383026, -80.426978,,,0,
3958,3958,"DOON SOUTH / WINDING WOOD",,  43.384623, -80.425975,,,0,
3959,3959,"DOON SOUTH / WINDRUSH",,  43.387304, -80.423554,,,0,
3961,3961,"DOON VILLAGE / ANVIL",,  43.390701, -80.438660,,,0,
3962,3962,"DOON MILLS / APPLE RIDGE",,  43.387065, -80.435220,,,0,
3963,3963,"DOON MILLS / PINE VALLEY",,  43.386094, -80.431849,,,0,
3964,3964,"DOON SOUTH / FOREST EDGE",,  43.382675, -80.427092,,,0,
3965,3965,"DOON SOUTH / WINDING WOOD",,  43.384722, -80.425789,,,0,
3966,3966,"DOON SOUTH / WINDRUSH",,  43.387212, -80.423296,,,0,
3971,3971,"PINEBUSH / BALMORAL",,  43.412825, -80.301278,,,0,
3972,3972,"PINEBUSH / FLEMING",,  43.413894, -80.295016,,,0,
3973,3973,"Pinebush / Thompson",,  43.415289, -80.287601,,,0,
3974,3974,"THOMPSON / PINEBUSH",,  43.414009, -80.286034,,,0,
3975,3975,"THOMPSON / LINGARD",,  43.411094, -80.289218,,,0,
3976,3976,"FLEMING / THOMPSON",,  43.410219, -80.293354,,,0,
3977,3977,"FLEMING / SHELDON",,  43.409010, -80.292985,,,0,
3978,3978,"SHELDON / THOMPSON",,  43.407977, -80.296344,,,0,
3979,3979,"SHELDON / BALMORAL",,  43.407352, -80.300069,,,0,
3980,3980,"SHELDON / FRANKLIN",,  43.406447, -80.305328,,,0,
3981,3981,"SHELDON / WOLSELEY",,  43.404783, -80.309978,,,0,
3982,3982,"SHELDON / WOLSELEY",,  43.403095, -80.312307,,,0,
3983,3983,"SHELDON / CORYDON",,  43.402951, -80.315309,,,0,
3984,3984,"SHELDON / CONESTOGA",,  43.402917, -80.318694,,,0,
3985,3985,"505 CONESTOGA",,  43.400556, -80.318473,,,0,
3986,3986,"CONESTOGA / BISHOP",,  43.396688, -80.317504,,,0,
3987,3987,"THOMPSON / LINGARD",,  43.411341, -80.288524,,,0,
3988,3988,"THOMPSON / PINEBUSH",,  43.413731, -80.286112,,,0,
3989,3989,"Pinebush / Thompson",,  43.415090, -80.287479,,,0,
3999,3999,"DOON MILLS / WOODSMERE",,  43.383044, -80.428792,,,0,
4000,4000,"THE BOARDWALK TERMINAL",,  43.435732, -80.560692,,,0,place_TBW
4001,4001,"THE BOARDWALK TERMINAL",,  43.435392, -80.560344,,,0,place_TBW
4002,4002,"THE BOARDWALK TERMINAL",,  43.435186, -80.560761,,,0,place_TBW
4003,4003,"THE BOARDWALK TERMINAL",,  43.435439, -80.561018,,,0,place_TBW
4005,4005,"CONESTOGA MALL TERMINAL",,  43.498398, -80.529367,,,0,place_CML
4008,4008,"ELGIN / AVENUE",,  43.379262, -80.306737,,,0,
4011,4011,"CENTENNIAL / FORWELL",,  43.471842, -80.433607,,,0,
4012,4012,"COLUMBIA / ERBSVILLE",,  43.461946, -80.581186,,,0,
4013,4013,"COLUMBIA / CAVENDISH",,  43.463893, -80.576576,,,0,
4014,4014,"LAURELWOOD / BLUE BEECH",,  43.470290, -80.594731,,,0,
4016,4016,"BRIDGE / CHESAPEAKE",,  43.509082, -80.517909,,,0,
4017,4017,"COLUMBIA / SALZBURG",,  43.460368, -80.582848,,,0,
4018,4018,"COLUMBIA / SALZBURG",,  43.460465, -80.582531,,,0,
4019,4019,"COLUMBIA / ST. MORITZ",,  43.453259, -80.584023,,,0,
4020,4020,"COLUMBIA / ST. MORITZ",,  43.453118, -80.584285,,,0,
4021,4021,"COLUMBIA / LUCERNE",,  43.457183, -80.582652,,,0,
4022,4022,"COLUMBIA / ZURICH",,  43.457015, -80.582987,,,0,
4023,4023,"COLUMBIA / SUNDEW",,  43.449190, -80.590268,,,0,
4024,4024,"COLUMBIA / BENNINGTON",,  43.465022, -80.573290,,,0,
4025,4025,"COLUMBIA / GATESTONE",,  43.466501, -80.569081,,,0,
4026,4026,"COLUMBIA / FISCHER-HALLMAN",,  43.467909, -80.565832,,,0,
4027,4027,"COLUMBIA / FISCHER-HALLMAN",,  43.468120, -80.565210,,,0,
4028,4028,"BRIDGE / PATH TO BRIGANTINE",,  43.508032, -80.516305,,,0,
4029,4029,"BRIDGE / PATH TO WISSLER",,  43.507890, -80.516392,,,0,
4030,4030,"BRIDGE / BECHTEL PARK",,  43.487940, -80.492206,,,0,
4031,4031,"BRIDGE / PATH TO AUBURN",,  43.488124, -80.492130,,,0,
4032,4032,"BRIDGE / UNIVERSITY",,  43.489037, -80.493742,,,0,
4033,4033,"BRIDGE / UNIVERSITY",,  43.489259, -80.493634,,,0,
4034,4034,"BRIDGE / DANSBURY",,  43.496208, -80.501262,,,0,
4035,4035,"BRIDGE / EASTBRIDGE",,  43.503951, -80.509782,,,0,
4036,4036,"BRIDGE / CHESAPEAKE",,  43.505863, -80.511143,,,0,
4037,4037,"BRIDGE / CHESAPEAKE",,  43.506014, -80.510998,,,0,
4038,4038,"BRIDGE / CHESAPEAKE",,  43.508988, -80.518125,,,0,
4039,4039,"KING / WEBER",,  43.513992, -80.557162,,,0,
4040,4040,"KING / WEBER",,  43.514195, -80.557017,,,0,
4042,4042,"NORTHFIELD / DAVENPORT",,  43.503132, -80.528994,,,0,
4043,4043,"NORTHFIELD / DAVENPORT",,  43.503641, -80.528290,,,0,
4044,4044,"BLACKBERRY NORTHFIELD",,  43.516788, -80.513942,,,0,
4045,4045,"BLACKBERRY NORTHFIELD",,  43.516562, -80.514077,,,0,
4046,4046,"UNIVERSITY / AUBURN",,  43.497418, -80.491808,,,0,
4047,4047,"UNIVERSITY / AUBURN",,  43.497927, -80.491842,,,0,
4049,4049,"UNIVERSITY / LINCOLN",,  43.483660, -80.507701,,,0,
4050,4050,"BRIDGE / NORTHFIELD",,  43.510908, -80.520092,,,0,
4051,4051,"BRIDGE / NORTHFIELD",,  43.511055, -80.520808,,,0,
4052,4052,"UNIVERSITY / LINCOLN",,  43.483163, -80.508213,,,0,
4053,4053,"WESTMOUNT / ERB",,  43.459679, -80.537098,,,0,
4054,4054,"UNIVERSITY / BRIDGE",,  43.489225, -80.494564,,,0,
4055,4055,"UNIVERSITY / BRIDGE",,  43.489495, -80.493411,,,0,
4056,4056,"ERB / FISCHER-HALLMAN",,  43.452344, -80.554144,,,0,
4057,4057,"LINCOLN / WEBER",,  43.471269, -80.513586,,,0,
4058,4058,"LINCOLN / WEBER",,  43.471264, -80.513238,,,0,
4059,4059,"LINCOLN / ELLIS",,  43.474433, -80.509799,,,0,
4060,4060,"LINCOLN / ELLIS",,  43.474344, -80.510022,,,0,
4061,4061,"LINCOLN / MARSHALL",,  43.476441, -80.509037,,,0,
4062,4062,"LINCOLN / MARSHALL",,  43.476335, -80.509274,,,0,
4063,4063,"PORTSMOUTH / SPRINGFIELD",,  43.440132, -80.554164,,,0,
4064,4064,"PORTSMOUTH / WESTVALE",,  43.440554, -80.554207,,,0,
4065,4065,"WESTVALE / CARDIFF",,  43.441651, -80.558028,,,0,
4066,4066,"WESTVALE / BRIDGEWATER",,  43.442155, -80.558494,,,0,
4067,4067,"WESTVALE / THORNDALE",,  43.443617, -80.559853,,,0,
4068,4068,"WESTVALE / THORNDALE",,  43.444077, -80.559561,,,0,
4069,4069,"WESTVALE / EDENVALLEY",,  43.446066, -80.560092,,,0,
4070,4070,"WESTVALE / HEATHER HILL",,  43.448411, -80.558220,,,0,
4071,4071,"ERB / BEECHWOOD",,  43.451590, -80.556310,,,0,
4072,4072,"COLUMBIA / KING",,  43.481692, -80.527075,,,0,
4073,4073,"KING / COLUMBIA",,  43.482448, -80.526106,,,0,
4074,4074,"U.W. / COLUMBIA",,  43.475116, -80.546437,,,0,
4075,4075,"U.W. / COLUMBIA",,  43.474953, -80.546736,,,0,
4076,4076,"FISCHER-HALLMAN / GATESTONE",,  43.470116, -80.568257,,,0,
4077,4077,"FISCHER-HALLMAN / PATH TO LAUREL GATE",,  43.472392, -80.570769,,,0,
4078,4078,"FISCHER-HALLMAN / LAURELWOOD",,  43.473798, -80.571918,,,0,
4079,4079,"LAURELWOOD / BEAVER CREEK",,  43.472385, -80.579440,,,0,
4080,4080,"LAURELWOOD / BROOKMILL",,  43.471793, -80.583768,,,0,
4081,4081,"LAURELWOOD / HOLLY VIEW",,  43.472739, -80.586376,,,0,
4082,4082,"LAURELWOOD / BIRCHMOUNT",,  43.472771, -80.590219,,,0,
4083,4083,"LAURELWOOD / ERBSVILLE",,  43.471447, -80.592720,,,0,
4084,4084,"ERBSVILLE / PATH TO BLUE BEECH",,  43.469040, -80.591047,,,0,
4085,4085,"ERBSVILLE / PATH TO BLUE BEECH",,  43.469153, -80.590861,,,0,
4086,4086,"ERBSVILLE / WHITE ELM",,  43.466457, -80.586099,,,0,
4087,4087,"ERBSVILLE / BRANDENBURG",,  43.459613, -80.578425,,,0,
4088,4088,"ERBSVILLE / CORNRIDGE",,  43.459774, -80.578281,,,0,
4089,4089,"KING / HIGH CREST",,  43.535182, -80.554343,,,0,
4090,4090,"KING / HIGH CREST",,  43.535225, -80.554207,,,0,
5000,5000,"WATER / JOSEPH",,  43.449856, -80.495662,,,0,
5001,5001,"PARK / CHERRY",,  43.449909, -80.504806,,,0,
5002,5002,"PARK / CHERRY",,  43.449581, -80.504599,,,0,
5003,5003,"PARK / DOMINION",,  43.452020, -80.507432,,,0,
5004,5004,"PARK / DOMINION",,  43.452204, -80.507884,,,0,
5005,5005,"Water / King",,  43.451514, -80.494579,,,0,
5006,5006,"WATER / KING",,  43.451504, -80.494734,,,0,
5007,5007,"Bridgeport / Albert",,  43.467407, -80.525071,,,0,place_KWS
5008,5008,"WEBER / EAST",,  43.444603, -80.468015,,,0,
5009,5009,"Weber / Ottawa",,  43.444185, -80.467540,,,0,
5010,5010,"Joseph / Water",,  43.449702, -80.495471,,,0,
5011,5011,"JOSEPH / WATER",,  43.449690, -80.495803,,,0,
5012,5012,"JOSEPH / LINDEN",,  43.450448, -80.497881,,,0,
5013,5013,"Joseph / Francis",,  43.450108, -80.497115,,,0,
5014,5014,"BRIDGEPORT / KING",,  43.467745, -80.522769,,,0,
5015,5015,"WATER / WEBER",,  43.454098, -80.492863,,,0,
5016,5016,"WATER / FRANCIS",,  43.453916, -80.493221,,,0,
5017,5017,"WELLINGTON / WEBER",,  43.457131, -80.494610,,,0,
5018,5018,"CONESTOGA / PINEBUSH",,  43.407857, -80.321546,,,0,
5019,5019,"CONESTOGA / PINEBUSH",,  43.407718, -80.321704,,,0,
5026,5026,"Elgin / Samuelson",,  43.370948, -80.302343,,,0,
5028,5028,"PARK / ALLEN",,  43.458821, -80.520479,,,0,
5029,5029,"PARK / ALLEN",,  43.458690, -80.520507,,,0,
5035,5035,"SHELDON / BALMORAL",,  43.407448, -80.300305,,,0,
5036,5036,"PARK / UNION",,  43.456764, -80.516336,,,0,
5038,5038,"VICTORIA / WEBER",,  43.454261, -80.495114,,,0,
5052,5052,"GLASGOW / PARK",,  43.454039, -80.511089,,,0,
5053,5053,"GLASGOW / PARK",,  43.454111, -80.510502,,,0,
5054,5054,"WEBER / UNION",,  43.465223, -80.504966,,,0,
5055,5055,"WEBER / UNION",,  43.465056, -80.505169,,,0,
5056,5056,"REGINA / WILLIS",,  43.463937, -80.520879,,,0,
5057,5057,"REGINA / WILLIS",,  43.463963, -80.520692,,,0,
5058,5058,"WILLIAM / CAROLINE",,  43.461044, -80.522184,,,0,
5059,5059,"REGINA / DUPONT",,  43.466089, -80.521337,,,0,
5060,5060,"CAROLINE / ALEXANDRA",,  43.461701, -80.522851,,,0,
5061,5061,"CAROLINE / ALEXANDRA",,  43.461371, -80.522878,,,0,
5065,5065,"KING / BRIDGEPORT",,  43.467813, -80.523212,,,0,
5066,5066,"Cedar / Osborne",,  43.351752, -80.327255,,,0,
5067,5067,"KING / HACHBORN",,  43.536958, -80.553919,,,0,
5068,5068,"KING / HACHBORN",,  43.536823, -80.554102,,,0,
5069,5069,"VICTORIA / WATERLOO",,  43.453605, -80.497668,,,0,
5070,5070,"FOURTH / TAIT",,  43.343719, -80.324146,,,0,
5071,5071,"MARSHALL / WEBER",,  43.475024, -80.516994,,,0,
5072,5072,"MARSHALL / BELLEHAVEN",,  43.476371, -80.510655,,,0,
5073,5073,"BELLEHAVEN / MAYFIELD",,  43.480380, -80.510308,,,0,
5074,5074,"MARSHALL / WEBER",,  43.475119, -80.517074,,,0,
5075,5075,"MARSHALL / BELLEHAVEN",,  43.476507, -80.510773,,,0,
6019,6019,"ION Pinebush Southbound",,  43.407581, -80.328185,,,0,
6021,6021,"ION CanAmera Southbound",,  43.385250, -80.321055,,,0,
6022,6022,"ION Delta Southbound",,  43.373813, -80.318847,,,0,
6023,6023,"ION PINEBUSH SOUTBOUND",,  43.407203, -80.328043,,,0,
6101,6101,"ION Ainslie Street Terminal",,  43.357642, -80.313444,,,0,place_AST
6102,6102,"ION Delta Northbound",,  43.372911, -80.318258,,,0,
6103,6103,"ION CanAmera Northbound",,  43.386289, -80.320911,,,0,
6105,6105,"ION Pinebush Northbound",,  43.407749, -80.327774,,,0,
7000,7000,"SNYDER'S / NOTRE DAME",,  43.413404, -80.606216,,,0,
7001,7001,"SNYDER'S / NOTRE DAME",,  43.413341, -80.605695,,,0,
7002,7002,"SNYDER'S / FORLER",,  43.405625, -80.656739,,,0,
7003,7003,"SNYDER'S / FORLER",,  43.405559, -80.656092,,,0,
7004,7004,"Snyder's / Brubacher",,  43.404701, -80.662960,,,0,
7005,7005,"SNYDER'S / COACHMAN'S",,  43.404489, -80.663303,,,0,
7006,7006,"SNYDER'S / MILL",,  43.403452, -80.671385,,,0,
7007,7007,"Snyder's / Foundry",,  43.403611, -80.669199,,,0,
7008,7008,"Waterloo Oxford D.S.S.",,  43.401234, -80.687378,,,0,
7009,7009,"WATERLOO / CHRISTNER",,  43.396590, -80.705159,,,0,
7010,7010,"Waterloo / Christner",,  43.397171, -80.704310,,,0,
7011,7011,"Waterloo / Forrest",,  43.387628, -80.711347,,,0,
7016,7016,"Wilmot Family Resource Centre",,  43.381433, -80.714770,,,0,
7017,7017,"Wilmot Family Resource Centre",,  43.381577, -80.714466,,,0,
7018,7018,"WATERLOO / HURON",,  43.377642, -80.713867,,,0,
7019,7019,"Waterloo / Huron",,  43.378038, -80.714285,,,0,
7020,7020,"HURON / UNION",,  43.378162, -80.711623,,,0,
7021,7021,"HURON / UNION",,  43.378307, -80.711842,,,0,
7022,7022,"PEEL / BOULLEE",,  43.376548, -80.707796,,,0,
7023,7023,"PEEL / BOULLEE",,  43.376813, -80.707800,,,0,
7024,7024,"Peel / Bleams",,  43.372778, -80.703866,,,0,
7025,7025,"Peel / Highway 7/8",,  43.373416, -80.704357,,,0,
7033,7033,"No Frills Grocery Store",,  43.370367, -80.703937,,,0,
7035,7035,"Waterloo / Forrest",,  43.387798, -80.710968,,,0,
place_AST,,"Ainslie Street Terminal",,  43.357455, -80.313250,,,1,
place_CBC,,"Cambridge Centre Terminal",,  43.391253, -80.319713,,,1,
place_CCD,,"Conestoga College Doon",,  43.390371, -80.403560,,,1,
place_CML,,"Conestoga Mall",,  43.498065, -80.528707,,,1,
place_CST,,"Charles Street Terminal",,  43.449337, -80.492437,,,1,
place_ECI,,"Eastwood CI",,  43.439090, -80.460999,,,1,
place_FGP,,"Forest Glen Terminal",,  43.414159, -80.478883,,,1,
place_FVM,,"Fairview Park",,  43.423075, -80.441140,,,1,
place_HHM,,"Highland Hills Terminal",,  43.430516, -80.525421,,,1,
place_HHS,,"Huron Heights SS",,  43.394121, -80.466436,,,1,
place_KUN,,"King/University",,  43.476139, -80.524978,,,1,
place_KWS,,"King/Waterloo Square",,  43.463861, -80.522150,,,1,
place_KWW,,"King/Willis Way",,  43.463903, -80.521875,,,1,
place_PPZ,,"Pioneer Plaza",,  43.394094, -80.433532,,,1,
place_PRHS,,"Preston High School",,  43.391467, -80.364692,,,1,
place_SMH,,"St Mary's High School",,  43.420000, -80.465320,,,1,
place_SPM,,"Stanley Park Mall",,  43.448916, -80.444425,,,1,
place_SPW,,"Sportsworld",,  43.409919, -80.392925,,,1,
place_STBS,,"St. Benedict's High School",,  43.391350, -80.299870,,,1,
place_TBW,,"The Boardwalk",,  43.435323, -80.560706,,,1,
place_WCI,,"Waterloo CI",,  43.479921, -80.531700,,,1,
place_WSS,,"Weber/Sunnyside School",,  43.435722, -80.451453,,,1,
